Time		Longitude	Latitude	Speed		Altitude	Roll		Pitch		Yaw		Status
0		53.157683	56.4707699	0.049000	0.528409	0.59		1.75		19.63		u-blox 1 HW: 00080000 SW: EXT CORE 3.01 (107900)
100		52.62610	55.90606	0.048480	0.644998	0.5353		1.6731		19.63		u-blox 1 HW: 00080000 SW: EXT CORE 3.01 (107900)
200		52.75899	56.0472371	0.060110	0.649053	0.536475	1.659825	19.62749	u-blox 1 HW: 00080000 SW: EXT CORE 3.01 (107900)
300		52.89189	56.1884142	0.071740	0.653108	0.53765		1.64655		19.625		u-blox 1 HW: 00080000 SW: EXT CORE 3.01 (107900)
400		53.02478	56.3295913	0.083370	0.657163	0.538825	1.633275	19.62250	u-blox 1 HW: 00080000 SW: EXT CORE 3.01 (107900)
500		53.15768	56.4707684	0.095000	0.661218	0.54		1.62		19.62		u-blox 1 HW: 00080000 SW: EXT CORE 3.01 (107900)
600		52.62610	55.90606	0.094050	0.654606	0.534600	1.603800	19.81620	u-blox 1 HW: 00080000 SW: EXT CORE 3.01 (107900)
700		52.71469	56.00017	0.082208	0.622741	0.5305		1.6065		19.79016	u-blox 1 HW: 00080000 SW: EXT CORE 3.01 (107900)
800		52.80329	56.09429	0.070366	0.590876	0.5264		1.6092		19.76413	u-blox 1 HW: 00080000 SW: EXT CORE 3.01 (107900)
900		52.89189	56.18841	0.058525	0.559012	0.5223		1.611899	19.7381		u-blox 1 HW: 00080000 SW: EXT CORE 3.01 (107900)
1000		52.98048	56.28253	0.046683	0.527147	0.5182		1.6146		19.71206	u-blox 1 HW: 00080000 SW: EXT CORE 3.01 (107900)
1100		53.06908	56.37664	0.034841	0.495282	0.5141		1.617300	19.68603	u-blox 1 HW: 00080000 SW: EXT CORE 3.01 (107900)
1200		53.1576819	56.47076	0.023000	0.463418	0.51		1.62		19.66		u-blox 1 HW: 00080000 SW: EXT CORE 3.01 (107900)
1300		53.15236	56.46512	0.023002	0.463464	0.509949	1.62		19.661966	u-blox 1 HW: 00080000 SW: EXT CORE 3.01 (107900)
1400		53.15342	56.46624	0.023401	0.464585	0.467959	1.592		19.6655728	u-blox 1 HW: 00080000 SW: EXT CORE 3.01 (107900)
1500		53.15448	56.46737	0.023801	0.465706	0.4259694	1.564		19.6691796	u-blox 1 HW: 00080000 SW: EXT CORE 3.01 (107900)
1600		53.15555	56.46850	0.024200	0.466827	0.3839796	1.536		19.6727864	u-blox 1 HW: 00080000 SW: EXT CORE 3.01 (107900)
1700		53.15661	56.46963	0.024600	0.467948	0.3419898	1.508		19.6763932	u-blox 1 HW: 00080000 SW: EXT CORE 3.01 (107900)
1800		53.1576816	56.4707672	0.025000	0.469069	0.3		1.48		19.68		u-blox 1 HW: 00080000 SW: EXT CORE 3.01 (107900)
1900		52.73242	56.01900	0.025200	0.472822	0.3024		1.46816		19.83744	u-blox 1 HW: 00080000 SW: EXT CORE 3.01 (107900)
2000		52.83873	56.13194	0.034150	0.493076	0.3268		1.466119	19.81558	u-blox 1 HW: 00080000 SW: EXT CORE 3.01 (107900)
2100		52.9450506	56.24488	0.043100	0.513331	0.3512		1.46408		19.79372	u-blox 1 HW: 00080000 SW: EXT CORE 3.01 (107900)
2200		53.0513659	56.35782	0.052050	0.533586	0.375600	1.46204		19.77186	u-blox 1 HW: 00080000 SW: EXT CORE 3.01 (107900)
2300		53.1576812	56.47076	0.061000	0.553841	0.4		1.46		19.75		u-blox 1 HW: 00080000 SW: EXT CORE 3.01 (107900)
2400		53.05136	56.35782	0.060878	0.554948	0.3992		1.46292		19.7895		u-blox 1 HW: 00080000 SW: EXT CORE 3.01 (107900)
2500		53.0665487	56.37395	0.054181	0.556808	0.387885	1.466788	19.78814	u-blox 1 HW: 00080000 SW: EXT CORE 3.01 (107900)
2600		53.0817374	56.39009	0.047484	0.558668	0.376571	1.470657	19.78678	u-blox 1 HW: 00080000 SW: EXT CORE 3.01 (107900)
2700		53.0969261	56.40622	0.040787	0.560528	0.365257	1.474525	19.78542	u-blox 1 HW: 00080000 SW: EXT CORE 3.01 (107900)
2800		53.1121148	56.42236	0.034090	0.562388	0.353942	1.478394	19.78407	u-blox 1 HW: 00080000 SW: EXT CORE 3.01 (107900)
2900		53.1273035	56.43849	0.027393	0.564249	0.342628	1.482262	19.78271	u-blox 1 HW: 00080000 SW: EXT CORE 3.01 (107900)
3000		53.1424922	56.45463	0.020696	0.566109	0.331314	1.486131	19.78135	u-blox 1 HW: 00080000 SW: EXT CORE 3.01 (107900)
3100		53.15768	56.47076	0.014000	0.567969	0.32		1.49		19.78		u-blox 1 HW: 00080000 SW: EXT CORE 3.01 (107900)
3200		53.15236	56.46511	0.014001	0.568026	0.319968	1.490149	19.78197	u-blox 1 HW: 00080000 SW: EXT CORE 3.01 (107900)
3300		53.15413	56.46699	0.026667	0.584961	0.299978	1.520099	19.79131	u-blox 1 HW: 00080000 SW: EXT CORE 3.01 (107900)
3400		53.15590	56.46888	0.039333	0.601897	0.279989	1.550049	19.80065	u-blox 1 HW: 00080000 SW: EXT CORE 3.01 (107900)
3500		53.1576806	56.47076	0.052000	0.618832	0.26		1.58		19.81		u-blox 1 HW: 00080000 SW: EXT CORE 3.01 (107900)
3600		52.62610	55.90605	0.051480	0.612644	0.2574		1.5642		20.0081		Mission: 1 Takeoff
3700		52.71469	56.00016	0.044233	0.479453	0.234500	1.541833	20.00008	Mission: 1 Takeoff
3800		52.80329	56.09428	0.036986	0.346263	0.2116		1.519466	19.99206	Mission: 1 Takeoff
3900		52.89189	56.18840	0.029740	0.213073	0.1887		1.4971		19.98405	Mission: 1 Takeoff
4000		52.98048	56.28252	0.022493	0.079883	0.1658		1.474733	19.97603	Mission: 1 Takeoff
4100		53.06908	56.37664	0.015246	-0.05330	0.1429		1.452366	19.96801	Mission: 1 Takeoff
4200		53.15768	56.47076	0.008000	-0.18649	0.12		1.43		19.96		Mission: 1 Takeoff
4300		52.62610	55.90605	0.008080	-0.18836	0.118799	1.4157		19.7604		Mission: 1 Takeoff
4400		52.71469	56.00016	0.029400	-0.20877	-0.09933	1.126416	19.767		Mission: 1 Takeoff
4500		52.80329	56.0942881	0.050720	-0.22918	-0.31746	0.837133	19.77360	Mission: 1 Takeoff
4600		52.89189	56.18840	0.072040	-0.24959	-0.5356005	0.54785		19.7802		Mission: 1 Takeoff
4700		52.98048	56.2825262	0.093360	-0.27000	-0.75373	0.258566	19.7868		Mission: 1 Takeoff
4800		53.06908	56.37664	0.114680	-0.29041	-0.97186	-0.03071	19.79340	Mission: 1 Takeoff
4900		53.15768	56.4707643	0.136000	-0.31082	-1.19		-0.32000	19.8		Mission: 1 Takeoff
5000		53.15768	56.46511	0.136013	-0.31086	-1.190119	-0.320032	19.79802	Mission: 1 Takeoff
5100		53.1576805	56.46699	0.184675	0.263713	-1.58007	-0.41002	19.78201	Mission: 1 Takeoff
5200		53.157681	56.46887	0.233337	0.838286	-1.97003	-0.50001	19.76600	Mission: 1 Takeoff
5300		53.15768	56.4707637	0.282000	1.412859	-2.36		-0.59		19.75		Mission: 1 Takeoff
5400		53.68925	57.03547	0.279180	1.426988	-2.3836		-0.5841		19.9475		Mission: 1 Takeoff
5500		53.60065	56.94135	0.274316	1.673767	-2.738		-0.54675	19.92625	Mission: 1 Takeoff
5600		53.51206	56.84723	0.269453	1.920547	-3.0924		-0.5094		19.905		Mission: 1 Takeoff
5700		53.4234666	56.75311	0.26459		2.167326	-3.44679	-0.47204	19.88375	Mission: 1 Takeoff
5800		53.33487	56.6589994	0.259726	2.414106	-3.80119	-0.4347		19.8625		Mission: 1 Takeoff
5900		53.24627	56.56488	0.254863	2.660885	-4.1556		-0.39735	19.84125	Mission: 1 Takeoff
6000		53.1576832	56.4707641	0.25		2.907665	-4.51		-0.36		19.82		Mission: 1 Takeoff
6100		53.58294	56.92253	0.248		2.930926	-4.47392	-0.36288	19.97856	Mission: 1 Takeoff
6200		53.51206	56.84723	0.213666	3.212446	-4.4616		-0.1074		19.98546	Mission: 1 Takeoff
6300		53.44118	56.7719415	0.179333	3.493967	-4.44928	0.14808		19.99237	Mission: 1 Takeoff
6400		53.37031	56.69664	0.145000	3.775488	-4.43696	0.403560	19.99928	Mission: 1 Takeoff
6500		53.29943	56.621353	0.110666	4.057009	-4.42464	0.65904		20.00618	Mission: 1 Takeoff
6600		53.22855	56.54605	0.076333	4.338530	-4.41232	0.914519	20.01309	Mission: 1 Takeoff
6700		53.1576835	56.47076	0.042000	4.620051	-4.4		1.17		20.02		Mission: 1 Takeoff
6800		53.05136	56.35782	0.042084	4.629291	-4.3912		1.16766		20.06004	EKF2 IMU0 in-flight yaw alignment complete
6900		53.08680	56.39546	0.074722	5.147085	-4.32746	0.775106	20.06336	EKF2 IMU0 in-flight yaw alignment complete
7000		53.12224	56.43311	0.107361	5.664879	-4.26373	0.382553	20.06668	EKF2 IMU0 in-flight yaw alignment complete
7100		53.15768	56.47076	0.140000	6.182674	-4.2		-0.01000	20.07		EKF2 IMU0 in-flight yaw alignment complete
7200		52.65268	56.47076	0.138670	6.241409	-4.23990	-0.010095	19.879335	EKF2 IMU0 in-flight yaw alignment complete
7300		52.73684	56.4707608	0.132058	6.426123	-4.27991	0.0415875	19.90277	EKF2 IMU0 in-flight yaw alignment complete
7400		52.82101	56.47076	0.125446	6.610838	-4.31993	0.093269	19.92622	EKF2 IMU0 in-flight yaw alignment complete
7500		52.9051812	56.4707624	0.118835	6.795552	-4.35994	0.1449525	19.9496675	EKF2 IMU0 in-flight yaw alignment complete
7600		52.98934	56.4707632	0.112223	6.980267	-4.39996	0.196635	19.97311	EKF2 IMU0 in-flight yaw alignment complete
7700		53.07351	56.47076	0.105611	7.164982	-4.43998	0.2483175	19.99655	EKF2 IMU0 in-flight yaw alignment complete
7800		53.1576824	56.4707648	0.099000	7.349696	-4.48		0.3		20.02		EKF2 IMU0 in-flight yaw alignment complete
7900		53.08857	56.39735	0.098871	7.359251	-4.47417	0.29961		20.046026	EKF2 IMU0 in-flight yaw alignment complete
8000		53.10239	56.41203	0.090896	7.603742	-4.415336	0.227688	20.0588208	EKF2 IMU0 in-flight yaw alignment complete
8100		53.11621	56.42671	0.082922	7.848234	-4.356502	0.155766	20.0716156	EKF2 IMU0 in-flight yaw alignment complete
8200		53.13003	56.44139	0.074948	8.092726	-4.297668	0.083843	20.0844104	EKF2 IMU0 in-flight yaw alignment complete
8300		53.14385	56.45608	0.066974	8.337218	-4.238834	0.011921	20.0972052	EKF2 IMU0 in-flight yaw alignment complete
8400		53.1576824	56.4707648	0.059000	8.581709	-4.18		-0.06		20.11		EKF2 IMU0 in-flight yaw alignment complete
8500		53.1576824	56.4707648	0.059590	8.667526	-4.2218		-0.0606		20.3111		EKF2 IMU0 in-flight yaw alignment complete
8600		53.15768	56.47076	0.061491	8.728575	-4.34483	-0.04883	20.29258	EKF2 IMU0 in-flight yaw alignment complete
8700		53.15768	56.47076	0.063393	8.789625	-4.46786	-0.03706	20.27406	EKF2 IMU0 in-flight yaw alignment complete
8800		53.15768	56.47076	0.065295	8.850675	-4.59089	-0.02530	20.25555	EKF2 IMU0 in-flight yaw alignment complete
8900		53.15768	56.47076	0.067196	8.911725	-4.71393	-0.01353	20.23703	EKF2 IMU0 in-flight yaw alignment complete
9000		53.15768	56.47076	0.069098	8.972775	-4.83696	-0.00176	20.21851	EKF2 IMU0 in-flight yaw alignment complete
9100		53.1576825	56.4707649	0.071000	9.033824	-4.96		0.009999	20.2		EKF2 IMU0 in-flight yaw alignment complete
9200		53.13641	56.44817	0.071028	9.030211	-4.961984	0.010004	20.20808	Mission: 2 WP
9300		53.14350	56.4557016	0.126352	9.550406	-6.51465	1.143336	20.23205	Mission: 2 WP
9400		53.150591	56.4632332	0.181676	10.07060	-8.067328	2.276668	20.25602	Mission: 2 WP
9500		53.15768	56.4707648	0.237000	10.59079	-9.62000	3.409999	20.28		Mission: 2 WP
9600		52.73773	56.02464	0.238872	10.67446	-9.544002	3.436939	20.119788	Mission: 2 WP
9700		52.80772	56.09899	0.339726	10.85078	-9.733335	3.577449	20.13149	Mission: 2 WP
9800		52.8777122	56.17334	0.440581	11.02710	-9.922668	3.717959	20.143192	Mission: 2 WP
9900		52.9477033	56.24770	0.541436	11.20342	-10.112001	3.8584695	20.154894	Mission: 2 WP
10000		53.01769	56.3220558	0.642290	11.37974	-10.301334	3.998979	20.16659	Mission: 2 WP
10100		53.08768	56.39640	0.743145	11.55606	-10.490667	4.139489	20.178298	Mission: 2 WP
10200		53.15767	56.4707637	0.844000	11.73238	-10.68		4.28		20.19		Mission: 2 WP
10300		53.05667	56.36346	0.845603	11.75467	-10.659708	4.271868	20.15163	Mission: 2 WP
10400		53.07686	56.38492	0.972882	11.82424	-10.6517	4.231494	19.293304	Mission: 2 WP
10500		53.09706	56.40638	1.100161	11.89382	-10.6438	4.1911208	18.434978	Mission: 2 WP
10600		53.11726	56.42784	1.227441	11.96340	-10.6358	4.150747	17.57665	Mission: 2 WP
10700		53.13746	56.44930	1.354720	12.03297	-10.6279	4.1103736	16.718326	Mission: 2 WP
10800		53.1576659	56.4707619	1.482000	12.10255	-10.6200	4.07		15.86000	Mission: 2 WP
10900		52.64203	55.92299	1.496375	12.21995	-10.7230	4.030521	16.013842	Mission: 2 WP
11000		52.72796	56.01428	1.602312	12.42314	-10.8341	3.040434	70.631535	Mission: 2 WP
11100		52.81390	56.1055795	1.708250	12.62634	-10.9453	2.050347	125.249228	Mission: 2 WP
11200		52.8998402	56.19687	1.814187	12.82953	-11.0565	1.0602605	179.8669	Mission: 2 WP
11300		52.98577	56.28816	1.920125	13.03273	-11.1676	0.070173	234.4846	Mission: 2 WP
11400		53.07171	56.37946	2.026062	13.23592	-11.2788	-0.91991	289.1023	Mission: 2 WP
11500		53.15765	56.47075	2.132000	13.43912	-11.39		-1.91000	343.72		Mission: 2 WP
11600		52.66328	55.94558	2.151827	13.56410	-11.495927	-1.92776	340.523404	Mission: 2 WP
11700		52.74567	56.0331093	2.210689	13.69303	-10.5932	-2.79813	335.2061	Mission: 2 WP
11800		52.82806	56.1206386	2.269551	13.82196	-9.690618	-3.66850	329.888936	Mission: 2 WP
11900		52.91045	56.2081679	2.328413	13.95090	-8.7879635	-4.53888	324.571702	Mission: 2 WP
12000		52.99285	56.2956972	2.387275	14.07983	-7.88530	-5.40925	319.2544	Mission: 2 WP
12100		53.07524	56.3832265	2.446137	14.20876	-6.9826545	-6.27962	313.937234	Mission: 2 WP
12200		53.1576363	56.4707558	2.505000	14.33770	-6.08		-7.15		308.62		Mission: 2 WP
12300		53.14168	56.45381	2.505751	14.34200	-6.078176	-7.152145	308.527414	Mission: 2 WP
12400		53.1469905	56.45945	2.577500	14.53648	-4.54545	-7.23476	298.8849	Mission: 2 WP
12500		53.15230	56.46510	2.649250	14.73096	-3.01272	-7.31738	289.2424	Mission: 2 WP
12600		53.15761	56.4707523	2.721000	14.92545	-1.47999	-7.4		279.6		Mission: 2 WP
12700		52.63666	55.91733	2.747665	15.07171	-1.494504	-7.32748	276.8599	Mission: 2 WP
12800		52.72348	56.00956	2.798554	15.24419	-1.04542	-6.88623	273.5282	Mission: 2 WP
12900		52.8103013	56.10180	2.849443	15.41667	-0.596336	-6.44498	270.1966	Mission: 2 WP
13000		52.89712	56.19403	2.900332	15.58915	-0.14725	-6.00374	266.86495	Mission: 2 WP
13100		52.9839426	56.2862758	2.951221	15.76163	0.301832	-5.56249	263.5333	Mission: 2 WP
13200		53.07076	56.37851	3.002111	15.93411	0.750916	-5.12124	260.20165	Mission: 2 WP
13300		53.1575839	56.47074	3.053000	16.10660	1.200000	-4.68		256.87		Mission: 2 WP
13400		53.05658	56.36345	3.058800	16.13720	1.20228		-4.688892	256.381947	Mission: 2 WP
13500		53.07677	56.38490	3.082640	16.37126	1.363824	-4.7691136	256.4715	Mission: 2 WP
13600		53.09696	56.40636	3.106480	16.60533	1.525368	-4.8493352	256.5611	Mission: 2 WP
13700		53.11716	56.42782	3.130320	16.83939	1.686912	-4.9295568	256.6507	Mission: 2 WP
13800		53.13735	56.44928	3.154160	17.07346	1.848456	-5.0097784	256.7403	Mission: 2 WP
13900		53.1575548	56.4707437	3.178000	17.30753	2.010000	-5.09		256.83		Mission: 2 WP
14000		52.64724	55.92862	3.147491	17.47368	1.990704	-5.041136	254.364432	Mission: 2 WP
14100		52.73228	56.01897	3.140075	17.59716	1.990586	-4.99928	254.7720	Mission: 2 WP
14200		52.81733	56.10932	3.132660	17.72064	1.990469	-4.957424	255.1796	Mission: 2 WP
14300		52.90238	56.19967	3.125245	17.84413	1.990352	-4.915568	255.587216	Mission: 2 WP
14400		52.98743	56.29003	3.117830	17.96761	1.990234	-4.873712	255.9948	Mission: 2 WP
14500		53.07247	56.38038	3.110415	18.09110	1.990117	-4.831856	256.4024	Mission: 2 WP
14600		53.1575251	56.4707387	3.103000	18.21458	1.99		-4.79		256.81		Mission: 2 WP
14700		52.66316	55.94556	3.074142	18.38398	1.971493	-4.745453	254.421667	Mission: 2 WP
14800		52.7455509	56.0330893	3.059285	18.55307	1.801244	-4.72954	254.7697	Mission: 2 WP
14900		52.8279418	56.1206186	3.044428	18.72217	1.630995	-4.71363	255.1177	Mission: 2 WP
15000		52.9103327	56.2081479	3.029571	18.89127	1.4607465	-4.6977265	255.4658	Mission: 2 WP
15100		52.9927236	56.2956772	3.014714	19.06037	1.290497	-4.68181	255.813889	Mission: 2 WP
15200		53.0751145	56.3832065	2.999857	19.22946	1.120248	-4.66590	256.1619	Mission: 2 WP
15300		53.1575054	56.4707358	2.985000	19.39856	0.95		-4.65		256.51		Mission: 2 WP
15400		53.13624	56.44814	2.986194	19.40632	0.94962		-4.65186	256.407396	Mission: 2 WP
15500		53.14331	56.4556706	2.994462	19.91518	0.929746	-4.90457	256.3215	Mission: 2 WP
15600		53.15039	56.4632012	3.002731	20.42405	0.909873	-5.15728	256.2357	Mission: 2 WP
15700		53.1574768	56.47073	3.011000	20.93292	0.89		-5.41		256.15		Mission: 2 WP
15800		52.67374	55.95684	3.038400	21.12341	0.881901	-5.360769	253.8190	Mission: 2 WP
15900		52.75435	56.04248	3.040000	21.26073	0.821584	-5.28397	254.1341	Mission: 2 WP
16000		52.8349761	56.12813	3.041600	21.39806	0.761267	-5.20717	254.4493	Mission: 2 WP
16100		52.91559	56.21378	3.043200	21.53538	0.7009505	-5.1303845	254.7645	Mission: 2 WP
16200		52.9962122	56.29943	3.044800	21.67271	0.640633	-5.05358	255.0796	Mission: 2 WP
16300		53.07683	56.38507	3.046400	21.81003	0.580316	-4.97679	255.3948	Mission: 2 WP
16400		53.1574483	56.47072	3.048000	21.94736	0.52		-4.9		255.71		Mission: 2 WP
16500		52.65776	55.93990	3.076651	22.15366	0.524888	-4.85394	253.306326	Mission: 2 WP
16600		52.74103	56.02837	3.078209	22.32508	0.542406	-4.75495	253.6636	Mission: 2 WP
16700		52.8243133	56.11684	3.079767	22.49650	0.559925	-4.65595	254.0208	Mission: 2 WP
16800		52.90758	56.2053116	3.081325	22.66793	0.577444	-4.55697	254.3781	Mission: 2 WP
16900		52.99086	56.29378	3.082883	22.83935	0.594962	-4.45798	254.735442	Mission: 2 WP
17000		53.07414	56.38225	3.084442	23.01077	0.612481	-4.35898	255.092721	Mission: 2 WP
17100		53.1574199	56.47072	3.086000	23.18220	0.63		-4.26		255.4500	Mission: 2 WP
17200		52.65242	55.93425	3.056683	23.40243	0.635985	-4.30047	253.0232	Mission: 2 WP
17300		52.73658	56.02366	3.028402	23.60120	0.7299875	-4.313725	253.411		Mission: 2 WP
17400		52.8207471	56.11307	3.000122	23.79997	0.82399		-4.32698	253.7988	Mission: 2 WP
17500		52.90491	56.20248	2.971841	23.99874	0.9179925	-4.340235	254.1866	Mission: 2 WP
17600		52.9890742	56.29189	2.943561	24.19751	1.011995	-4.35349	254.5744	Mission: 2 WP
17700		53.07323	56.38130	2.915280	24.39629	1.1059975	-4.366745	254.9622	Mission: 2 WP
17800		53.1574013	56.47072	2.887000	24.59506	1.2		-4.38		255.35		Mission: 2 WP
17900		53.05108	56.35777	2.892774	24.64425	1.1976		-4.37124	254.8392	Mission: 2 WP
18000		53.08651	56.39541	2.949849	24.86804	1.011733	-4.36749	254.8761	Mission: 2 WP
18100		53.12194	56.43306	3.006924	25.09183	0.825866	-4.36374	254.9130	Mission: 2 WP
18200		53.15737	56.4707168	3.064000	25.31562	0.64		-4.36		254.9500	Mission: 2 WP
18300		52.63643	55.91730	3.094027	25.56371	0.633728	-4.317272	252.45149	Mission: 2 WP
18400		52.72324	56.00953	3.090855	25.72440	0.619773	-4.17939	252.8179	Mission: 2 WP
18500		52.81006	56.10177	3.087684	25.88509	0.605818	-4.04151	253.1843	Mission: 2 WP
18600		52.89688	56.19400	3.084513	26.04578	0.591864	-3.903636	253.550745	Mission: 2 WP
18700		52.98370	56.28624	3.081342	26.20647	0.577909	-3.76575	253.9171	Mission: 2 WP
18800		53.07052	56.37847	3.078171	26.36716	0.563954	-3.62787	254.2835	Mission: 2 WP
18900		53.15734	56.4707125	3.075000	26.52785	0.55		-3.49		254.65		Mission: 2 WP
19000		52.64703	55.92859	3.045480	26.78252	0.55528		-3.456496	257.09464	Mission: 2 WP
19100		52.7320776	56.01894	3.045733	26.91621	0.562733	-3.38374	256.6938	Mission: 2 WP
19200		52.8171252	56.10929	3.045986	27.04990	0.570186	-3.31099	256.2930	Mission: 2 WP
19300		52.9021728	56.19964	3.046240	27.18359	0.577639	-3.238248	255.89232	Mission: 2 WP
19400		52.9872204	56.29000	3.046493	27.31728	0.585093	-3.16549	255.4915	Mission: 2 WP
19500		53.07226	56.38035	3.046746	27.45098	0.592546	-3.09274	255.0907	Mission: 2 WP
19600		53.1573156	56.47070	3.047000	27.58467	0.6		-3.02		254.69		Mission: 2 WP
19700		52.63105	55.91164	3.077165	27.85776	0.605939	-2.990102	257.211431	Mission: 2 WP
19800		52.71875	56.00481	3.087470	28.02794	0.671615	-2.92175	256.8228	Mission: 2 WP
19900		52.8064621	56.09799	3.097776	28.19812	0.737292	-2.85340	256.4342	Mission: 2 WP
20000		52.89416	56.1911717	3.108082	28.36830	0.8029695	-2.785051	256.0457	Mission: 2 WP
20100		52.9818742	56.28434	3.118388	28.53848	0.868646	-2.71670	255.6571	Mission: 2 WP
20200		53.06958	56.37752	3.128694	28.70867	0.934323	-2.64835	255.2685	Mission: 2 WP
20300		53.15728	56.4707034	3.139000	28.87885	1.0		-2.58		254.88		Mission: 2 WP
20400		53.10412	56.41423	3.135861	28.90773	0.999		-2.57742	255.13488	Mission: 2 WP
20500		53.11474	56.42552	3.121488	29.16248	0.9852		-2.521936	255.127904	Mission: 2 WP
20600		53.12537	56.43681	3.107116	29.41724	0.9714		-2.46645	255.120928	Mission: 2 WP
20700		53.13600	56.44811	3.092744	29.67199	0.9576		-2.410968	255.113952	Mission: 2 WP
20800		53.14663	56.45940	3.078372	29.92675	0.943800	-2.355484	255.106976	Mission: 2 WP
20900		53.15726	56.4707003	3.064000	30.18151	0.93		-2.30000	255.1		Mission: 2 WP
21000		53.14663	56.45940	3.064612	30.18754	0.929814	-2.30046	255.15102	Mission: 2 WP
21100		53.15016	56.46316	3.067408	30.47186	0.829876	-2.42030	255.2173	Mission: 2 WP
21200		53.15370	56.46693	3.070204	30.75619	0.729938	-2.54015	255.2836	Mission: 2 WP
21300		53.1572378	56.4706954	3.073000	31.04052	0.63		-2.66		255.35		Mission: 2 WP
21400		52.65755	55.93987	3.044113	31.33231	0.624078	-2.685004	257.75029	Mission: 2 WP
21500		52.7408267	56.02834	2.993094	31.50644	0.575065	-2.78250	257.4152	Mission: 2 WP
21600		52.8241034	56.11681	2.942075	31.68057	0.526052	-2.88000	257.0801	Mission: 2 WP
21700		52.9073801	56.20528	2.891056	31.85470	0.477039	-2.97750	256.745145	Mission: 2 WP
21800		52.9906568	56.2937502	2.840037	32.02883	0.428026	-3.07500	256.4100	Mission: 2 WP
21900		53.07393	56.38222	2.789018	32.20296	0.379013	-3.17250	256.0750	Mission: 2 WP
22000		53.15721	56.47069	2.738000	32.37709	0.33		-3.27		255.74		Mission: 2 WP
22100		52.63095	55.91163	2.710893	32.69762	0.333267	-3.30237	258.2718	Mission: 2 WP
22200		52.71865	56.00480	2.713577	32.90604	0.452722	-3.40364	257.9314	Mission: 2 WP
22300		52.80636	56.09798	2.716262	33.11447	0.572178	-3.50491	257.5912	Mission: 2 WP
22400		52.89406	56.1911579	2.718946	33.32290	0.6916335	-3.606185	257.2509	Mission: 2 WP
22500		52.98177	56.28433	2.721631	33.53133	0.811089	-3.70745	256.9106	Mission: 2 WP
22600		53.06947	56.37750	2.724315	33.73976	0.9305445	-3.80872	256.5703	Mission: 2 WP
22700		53.15718	56.4706858	2.727000	33.94819	1.05		-3.91		256.23		Mission: 2 WP
22800		53.07213	56.38033	2.731363	34.00251	1.048320	-3.903744	256.639968	Mission: 2 WP
22900		53.08913	56.39840	2.774290	34.14367	1.040656	-3.8489952	256.6639	Mission: 2 WP
23000		53.10614	56.41647	2.817217	34.28483	1.032992	-3.7942464	256.6879	Mission: 2 WP
23100		53.12315	56.43454	2.860145	34.42599	1.025328	-3.7394976	256.7119	Mission: 2 WP
23200		53.14015	56.45261	2.903072	34.56715	1.017664	-3.6847488	256.7359	Mission: 2 WP
23300		53.1571657	56.4706828	2.946000	34.70831	1.01		-3.63		256.76		Mission: 2 WP
23400		52.70532	55.99068	2.920959	35.00333	1.018585	-3.66085	258.94246	Mission: 2 WP
23500		52.8182746	56.1106796	2.910719	35.22768	1.15393875	-3.7506375	258.461845	Mission: 2 WP
23600		52.93122	56.2306792	2.900479	35.45204	1.289292	-3.840425	257.98123	Mission: 2 WP
23700		53.0441838	56.3506788	2.890239	35.67640	1.424646	-3.93021	257.500615	Mission: 2 WP
23800		53.1571384	56.4706784	2.880000	35.90076	1.56		-4.02000	257.02		Mission: 2 WP
23900		52.64151	55.92291	2.907936	36.24900	1.544868	-4.058994	259.5130	Mission: 2 WP
24000		52.72744	56.01420	2.905946	36.37557	1.474056	-4.12916	259.1158	Mission: 2 WP
24100		52.81337	56.10549	2.903957	36.50214	1.403245	-4.19932	258.7186	Mission: 2 WP
24200		52.89931	56.19679	2.901968	36.62872	1.332434	-4.269497	258.3215	Mission: 2 WP
24300		52.98524	56.28808	2.899978	36.75529	1.261622	-4.33966	257.9243	Mission: 2 WP
24400		53.07117	56.37937	2.897989	36.88187	1.190811	-4.40983	257.5271	Mission: 2 WP
24500		53.15711	56.47067	2.896000	37.00844	1.12		-4.48		257.13		Mission: 2 WP
24600		52.64680	55.92855	2.923801	37.36373	1.130752	-4.52300	259.598448	Mission: 2 WP
24700		52.73184	56.01890	2.928500	37.48394	1.180626	-4.54583	259.19204	Mission: 2 WP
24800		52.81689	56.10925	2.933200	37.60416	1.230501	-4.56866	258.785632	Mission: 2 WP
24900		52.90194	56.19960	2.937900	37.72438	1.280376	-4.5915		258.379224	Mission: 2 WP
25000		52.98698	56.28996	2.942600	37.84460	1.330250	-4.61433	257.972816	Mission: 2 WP
25100		53.07203	56.38031	2.947300	37.96482	1.380125	-4.63716	257.566408	Mission: 2 WP
25200		53.1570843	56.4706696	2.952000	38.08504	1.43		-4.66		257.16		Mission: 2 WP
25300		53.07203	56.38031	2.956723	38.14598	1.427711	-4.652544	257.571456	Mission: 2 WP
25400		53.0890353	56.39838	2.968378	38.36380	1.2681688	-4.5420352	257.5151	Mission: 2 WP
25500		53.1060406	56.41645	2.980033	38.58163	1.1086266	-4.4315264	257.4588	Mission: 2 WP
25600		53.12304	56.43452	2.991689	38.79946	0.949084	-4.32101	257.4025	Mission: 2 WP
25700		53.14005	56.45259	3.003344	39.01728	0.7895422	-4.21050	257.3462	Mission: 2 WP
25800		53.15705	56.47066	3.015000	39.23511	0.63		-4.1		257.29		Mission: 2 WP
25900		52.63611	55.91725	2.985453	39.61961	0.636174	-4.14018	259.811442	Mission: 2 WP
26000		52.72293	56.00948	2.988877	39.83574	0.736811	-4.16348	259.429535	Mission: 2 WP
26100		52.80975	56.10172	2.992302	40.05187	0.837449	-4.18678	259.047628	Mission: 2 WP
26200		52.89657	56.193956	2.995726	40.26801	0.938087	-4.21009	258.6657	Mission: 2 WP
26300		52.98339	56.28619	2.999151	40.48414	1.038724	-4.23339	258.283814	Mission: 2 WP
26400		53.07021	56.37842	3.002575	40.70028	1.139362	-4.25669	257.901907	Mission: 2 WP
26500		53.1570377	56.470662	3.006000	40.91641	1.24		-4.28		257.52		Mission: 2 WP
26600		53.14109	56.45372	3.006901	40.92869	1.240372	-4.281284	257.5972	Mission: 2 WP
26700		53.14639	56.45936	3.041267	41.26651	1.266914	-4.390856	257.5981	Mission: 2 WP
26800		53.15170	56.46501	3.075633	41.60433	1.293457	-4.500428	257.5990	Mission: 2 WP
26900		53.15700	56.47065	3.110000	41.94215	1.32		-4.61		257.6		Mission: 2 WP
27000		52.64670	55.92853	3.080144	42.34479	1.332672	-4.56574	260.07296	Mission: 2 WP
27100		52.73174	56.01888	3.080286	42.43969	1.402226	-4.53478	259.6624	Mission: 2 WP
27200		52.81679	56.10923	3.080429	42.53459	1.471781	-4.50382	259.2519	Mission: 2 WP
27300		52.90184	56.19959	3.080572	42.62949	1.541336	-4.47287	258.8414	Mission: 2 WP
27400		52.98688	56.28994	3.080714	42.72439	1.610890	-4.44191	258.4309	Mission: 2 WP
27500		53.07193	56.38029	3.080857	42.81930	1.680445	-4.41095	258.0204	Mission: 2 WP
27600		53.1569801	56.47065	3.081000	42.91420	1.75		-4.38		257.61		Mission: 2 WP
27700		52.64667	55.92853	3.110577	43.32617	1.7332		-4.422048	255.136944	Mission: 2 WP
27800		52.73171	56.01888	3.105814	43.43129	1.596		-4.44170	255.50412	Mission: 2 WP
27900		52.81676	56.10923	3.101051	43.53641	1.4588		-4.46136	255.871296	Mission: 2 WP
28000		52.90181	56.1995895	3.096288	43.64153	1.3216		-4.481024	256.238472	Mission: 2 WP
28100		52.98685	56.28994	3.091525	43.74665	1.184400	-4.50068	256.6056	Mission: 2 WP
28200		53.07190	56.38029	3.086763	43.85177	1.047200	-4.52034	256.972824	Mission: 2 WP
28300		53.1569515	56.47064	3.082000	43.95689	0.909999	-4.54		257.3400	Mission: 2 WP
28400		53.09847	56.40853	3.078610	44.00524	0.908999	-4.535006	257.0569	Mission: 2 WP
28500		53.11016	56.42095	3.050688	44.30583	0.8011992	-4.4520048	257.04552	Mission: 2 WP
28600		53.12185	56.43337	3.022766	44.60642	0.6933994	-4.3690036	257.03414	Mission: 2 WP
28700		53.13354	56.44579	2.994844	44.90702	0.5855996	-4.2860024	257.02276	Mission: 2 WP
28800		53.14524	56.45822	2.966922	45.20761	0.4777998	-4.2030012	257.01138	Mission: 2 WP
28900		53.1569328	56.4706464	2.939000	45.50821	0.37		-4.12		257.0		Mission: 2 WP
29000		52.63599	55.91723	2.967802	45.95419	0.366374	-4.160376	254.4814	Mission: 2 WP
29100		52.7662186	56.05558	3.008351	46.03696	0.312280	-4.327782	255.03105	Mission: 2 WP
29200		52.8964472	56.19393	3.048901	46.11973	0.258187	-4.49518	255.5807	Mission: 2 WP
29300		53.02667	56.33228	3.089450	46.20251	0.204093	-4.662594	256.13035	Mission: 2 WP
29400		53.15690	56.47064	3.130000	46.28528	0.15		-4.83		256.68		Mission: 2 WP
29500		52.64659	55.92852	3.099952	46.72962	0.15144		-4.783632	254.2158	Mission: 2 WP
29600		52.73163	56.01887	3.078626	46.91976	0.1562		-4.78636	254.5815	Mission: 2 WP
29700		52.81668	56.1092261	3.057301	47.10991	0.16096		-4.789088	254.9472	Mission: 2 WP
29800		52.90173	56.19957	3.035976	47.30006	0.165719	-4.791816	255.3129	Mission: 2 WP
29900		52.98678	56.28993	3.014650	47.49021	0.17048		-4.794544	255.6786	Mission: 2 WP
30000		53.07182	56.38028	2.993325	47.68036	0.17524		-4.79727	256.0443	Mission: 2 WP
30100		53.1568755	56.4706383	2.972000	47.87051	0.18		-4.8		256.41		Mission: 2 WP
30200		52.65188	55.93416	3.000234	48.32528	0.17829		-4.8456		253.9741	Mission: 2 WP
30300		52.736041	56.02357	3.015695	48.36534	0.153575	-4.84133	254.3184	Mission: 2 WP
30400		52.82020	56.11298	3.031156	48.40540	0.12886		-4.83706	254.6627	Mission: 2 WP
30500		52.904363	56.20239	3.046617	48.44546	0.104145	-4.83280	255.00705	Mission: 2 WP
30600		52.988524	56.29180	3.062078	48.48552	0.07943		-4.82853	255.3513	Mission: 2 WP
30700		53.07268	56.38122	3.077539	48.52558	0.054715	-4.82426	255.6956	Mission: 2 WP
30800		53.15684	56.47063	3.093000	48.56564	0.03		-4.82		256.04		Mission: 2 WP
30900		53.05053	56.35769	3.086814	48.66277	0.03006		-4.81036	255.5279	Mission: 2 WP
31000		53.07178	56.38027	3.077051	48.90670	0.200048	-4.806288	255.6123	Mission: 2 WP
31100		53.09304	56.40286	3.067288	49.15063	0.370036	-4.80221	255.69674	Mission: 2 WP
31200		53.11430	56.42545	3.057525	49.39456	0.540024	-4.798144	255.78116	Mission: 2 WP
31300		53.13555	56.44804	3.047762	49.63849	0.710012	-4.794072	255.8655	Mission: 2 WP
31400		53.1568161	56.4706292	3.038000	49.88242	0.88		-4.79		255.9500	Mission: 2 WP
31500		52.63587	55.91721	3.067772	50.37127	0.888624	-4.836942	253.4416	Mission: 2 WP
31600		52.72269	56.00944	3.076976	50.41930	0.938853	-4.84911	253.8563	Mission: 2 WP
31700		52.80951	56.10168	3.086181	50.46734	0.989082	-4.86129	254.2710	Mission: 2 WP
31800		52.89633	56.19391	3.095386	50.51538	1.039312	-4.873471	254.6858	Mission: 2 WP
31900		52.98315	56.28615	3.104590	50.56342	1.089541	-4.88564	255.1005	Mission: 2 WP
32000		53.06997	56.37839	3.113795	50.61146	1.139770	-4.89782	255.5152	Mission: 2 WP
32100		53.1567965	56.4706261	3.123000	50.65950	1.19		-4.91		255.93		Mission: 2 WP
32200		52.69964	55.98497	3.096142	51.09517	1.200234	-4.867774	258.1309	Mission: 2 WP
32300		52.8139217	56.10638	3.100606	51.29213	1.270175	-4.7983305	257.638175	Mission: 2 WP
32400		52.9282034	56.22779	3.105071	51.48910	1.340117	-4.728887	257.14545	Mission: 2 WP
32500		53.0424851	56.34920	3.109535	51.68607	1.410058	-4.6594435	256.6527	Mission: 2 WP
32600		53.1567668	56.4706215	3.114000	51.88303	1.48		-4.59		256.16		Mission: 2 WP
32700		52.64646	55.92850	3.084105	52.38111	1.465792	-4.545936	258.619136	Mission: 2 WP
32800		52.73150	56.01885	3.070920	52.44927	1.401493	-4.49328	258.2126	Mission: 2 WP
32900		52.81655	56.1092057	3.057736	52.51743	1.337194	-4.44062	257.8060	Mission: 2 WP
33000		52.90159	56.19955	3.044552	52.58560	1.272896	-4.38796	257.3995	Mission: 2 WP
33100		52.98664	56.2899114	3.031368	52.65376	1.208597	-4.335312	256.9930	Mission: 2 WP
33200		53.07169	56.38026	3.018184	52.72192	1.144298	-4.282656	256.5865	Mission: 2 WP
33300		53.15673	56.4706171	3.005000	52.79009	1.08		-4.23		256.18		Mission: 2 WP
33400		53.07700	56.38591	3.009507	52.86927	1.078380	-4.22365	256.56427	Mission: 2 WP
33500		53.09294	56.4028505	3.044005	53.14165	1.004703	-4.19092	256.493416	Mission: 2 WP
33600		53.10888	56.419791	3.078504	53.41404	0.931028	-4.15819	256.422562	Mission: 2 WP
33700		53.12482	56.4367315	3.113002	53.68643	0.857351	-4.12546	256.351708	Mission: 2 WP
33800		53.14076	56.453672	3.147501	53.95882	0.783675	-4.09273	256.280854	Mission: 2 WP
33900		53.1567089	56.47061	3.182000	54.23120	0.71		-4.06000	256.21		Mission: 2 WP
34000		52.64640	55.92849	3.151452	54.75182	0.716816	-4.02102	253.7503	Mission: 2 WP
34100		52.73144	56.01884	3.142043	54.83506	0.774013	-4.00085	254.1519	Mission: 2 WP
34200		52.81649	56.10919	3.132634	54.91831	0.831210	-3.98068	254.5535	Mission: 2 WP
34300		52.9015451	56.19954	3.123226	55.00155	0.888408	-3.96051	254.95515	Mission: 2 WP
34400		52.98659	56.28990	3.113817	55.08480	0.945605	-3.94034	255.3567	Mission: 2 WP
34500		53.07164	56.38025	3.104408	55.16804	1.002802	-3.92016	255.7583	Mission: 2 WP
34600		53.1566902	56.47060	3.095000	55.25129	1.06		-3.9		256.16		Mission: 2 WP
34700		53.14605	56.45931	3.094381	55.26234	1.060212	-3.90077	256.2112	Mission: 2 WP
34800		53.14958	56.46307	3.061920	55.59491	1.423474	-3.98051	256.2274	Mission: 2 WP
34900		53.15312	56.46683	3.029460	55.92749	1.786737	-4.06025	256.2437	Mission: 2 WP
35000		53.1566615	56.4706045	2.997000	56.26007	2.15		-4.14		256.26		Mission: 2 WP
35100		52.74203	56.03013	2.973623	56.69890	2.133229	-4.107708	258.258828	Mission: 2 WP
35200		52.81113	56.10354	2.976352	56.86218	2.086024	-4.06642	257.9890	Mission: 2 WP
35300		52.88023	56.17695	2.979082	57.02546	2.038819	-4.02513	257.7192	Mission: 2 WP
35400		52.94933	56.2503646	2.981811	57.18874	1.9916145	-3.983854	257.449414	Mission: 2 WP
35500		53.01843	56.32377	2.984541	57.35202	1.944409	-3.94256	257.1796	Mission: 2 WP
35600		53.08753	56.39718	2.987270	57.51530	1.897204	-3.90128	256.9098	Mission: 2 WP
35700		53.1566335	56.47059	2.990000	57.67858	1.85		-3.86		256.64		Mission: 2 WP
35800		52.98653	56.28989	2.999568	57.86316	1.85592		-3.872352	257.461248	Mission: 2 WP
35900		53.02054	56.32603	3.015054	58.02178	2.038736	-3.92388	257.4289	Mission: 2 WP
36000		53.05456	56.36217	3.030540	58.18040	2.221552	-3.9754112	257.3967	Mission: 2 WP
36100		53.08857	56.39831	3.046027	58.33903	2.404368	-4.0269408	257.3644	Mission: 2 WP
36200		53.12259	56.43445	3.061513	58.49765	2.587184	-4.0784704	257.3322	Mission: 2 WP
36300		53.1566057	56.4705941	3.077000	58.65628	2.77		-4.13		257.3		Mission: 2 WP
36400		52.66756	55.95106	3.048691	59.19592	2.795484	-4.092004	259.66716	Mission: 2 WP
36500		52.74906	56.03764	3.040909	59.30990	2.851236	-4.08333	259.4159	Mission: 2 WP
36600		52.83056	56.12423	3.033127	59.42388	2.906989	-4.07466	259.1647	Mission: 2 WP
36700		52.9120688	56.21082	3.025345	59.53787	2.962742	-4.066002	258.91358	Mission: 2 WP
36800		52.99357	56.29741	3.017563	59.65185	3.018494	-4.05733	258.6623	Mission: 2 WP
36900		53.07507	56.38400	3.009781	59.76583	3.074247	-4.04866	258.4111	Mission: 2 WP
37000		53.1565776	56.47058	3.002000	59.87982	3.13		-4.04		258.16		Mission: 2 WP
37100		52.65690	55.93976	3.030218	60.44269	3.100578	-4.00202	260.586704	Mission: 2 WP
37200		52.7401765	56.02823	3.029848	60.53113	3.033815	-3.99668	260.2522	Mission: 2 WP
37300		52.823453	56.11670	3.029478	60.61958	2.967052	-3.99134	259.9178	Mission: 2 WP
37400		52.9067295	56.20517	3.029109	60.70803	2.900289	-3.98601	259.583352	Mission: 2 WP
37500		52.99000	56.29364	3.028739	60.79648	2.833526	-3.98067	259.2489	Mission: 2 WP
37600		53.0732825	56.38211	3.028369	60.88492	2.766763	-3.97533	258.9144	Mission: 2 WP
37700		53.15655	56.4705855	3.028000	60.97337	2.7		-3.97		258.58		Mission: 2 WP
37800		53.12998	56.44235	3.026486	61.00386	2.69865		-3.96801	258.70929	New mission
37900		53.13883	56.4517603	2.984657	61.38458	2.605766	-3.89534	258.76286	New mission
38000		53.14768	56.46117	2.942828	61.76531	2.512883	-3.82267	258.81643	New mission
38100		53.1565319	56.47058	2.901000	62.14604	2.42		-3.75		258.87		New mission
38200		52.64091	55.92281	2.929139	62.74886	2.396525	-3.786375	256.358961	New mission
38300		52.72684	56.01410	2.953449	62.81275	2.3054375	-3.82364	256.7591	New mission
38400		52.81277	56.10539	2.977759	62.87664	2.21435		-3.86091	257.1593	New mission
38500		52.89870	56.19669	3.002069	62.94054	2.1232625	-3.89818	257.5594	New mission
38600		52.984639	56.28798	3.026379	63.00443	2.032175	-3.93545	257.9596	New mission
38700		53.07057	56.37928	3.050689	63.06833	1.9410875	-3.97272	258.3598	New mission
38800		53.1565035	56.4705763	3.075000	63.13222	1.85		-4.01		258.76		New mission
38900		52.63025	55.91151	3.044557	63.75723	1.831685	-3.97030	261.321724	New mission
39000		52.71795	56.0046872	3.029630	63.82825	1.683070	-3.89191	260.90477	New mission
39100		52.8056615	56.0978644	3.014704	63.89928	1.534456	-3.81353	260.487816	New mission
39200		52.89336	56.1910416	2.999778	63.97031	1.3858425	-3.73515	260.0708	New mission
39300		52.98107	56.2842188	2.984852	64.04134	1.237228	-3.65676	259.653908	New mission
39400		53.06877	56.377396	2.969926	64.11236	1.088614	-3.57838	259.2369	New mission
39500		53.1564845	56.4705732	2.955000	64.18339	0.940000	-3.5		258.82		New mission
39600		53.14053	56.45363	2.954113	64.20265	0.940282	-3.50105	258.897646	New mission
39700		53.14583	56.45927	2.949075	64.66812	1.046854	-3.64736	258.921764	New mission
39800		53.15114	56.46492	2.944037	65.13360	1.153427	-3.79368	258.9458	New mission
39900		53.1564571	56.47056	2.939000	65.59907	1.26		-3.94		258.97		New mission
40000		53.10330	56.41409	2.936061	65.66467	1.25874		-3.94394	259.22897	New mission
40100		53.11392	56.42538	2.923248	65.81657	1.086992	-3.963152	259.213176	New mission
40200		53.12455	56.43667	2.910436	65.96847	0.915244	-3.982364	259.197382	New mission
40300		53.13517	56.44797	2.897624	66.12038	0.743496	-4.001576	259.181588	New mission
40400		53.14580	56.45926	2.884812	66.27228	0.571748	-4.020788	259.165794	New mission
40500		53.15642	56.4705644	2.872000	66.42418	0.4		-4.04		259.15		New mission
40600		52.64081	55.92279	2.844141	67.06850	0.40388		-4.079188	261.663755	New mission
40700		52.72674	56.01408	2.833784	67.18057	0.493233	-4.19599	261.2881	New mission
40800		52.81267	56.10537	2.823427	67.29265	0.582586	-4.312792	260.9125	New mission
40900		52.89860	56.19667	2.813070	67.40473	0.67194		-4.429594	260.5368	New mission
41000		52.98453	56.28796	2.802713	67.51681	0.761293	-4.54639	260.1612	New mission
41100		53.07047	56.37926	2.792356	67.62889	0.850646	-4.663198	259.7856	New mission
41200		53.1564031	56.4705599	2.782000	67.74097	0.940000	-4.78		259.41		New mission
41300		52.64610	55.92844	2.808707	68.39128	0.949024	-4.825888	261.9003	New mission
41400		52.73114	56.01879	2.805755	68.50895	0.970853	-4.84157	261.5469	New mission
41500		52.81619	56.10914	2.802804	68.62662	0.992682	-4.85725	261.1935	New mission
41600		52.9012384	56.19949	2.799853	68.74430	1.014512	-4.872944	260.84015	New mission
41700		52.98628	56.28985	2.796902	68.86197	1.036341	-4.88862	260.4867	New mission
41800		53.07133	56.38020	2.793951	68.97964	1.058170	-4.90431	260.1333	New mission
41900		53.1563768	56.47055	2.791000	69.09732	1.08		-4.92		259.7800	New mission
42000		52.65139	55.93408	2.817514	69.75374	1.09026		-4.96674	262.2479	New mission
42100		52.73555	56.0234921	2.824761	69.76866	1.181883	-5.08561	261.89825	New mission
42200		52.81971	56.1129042	2.832009	69.78359	1.273506	-5.20449	261.5486	New mission
42300		52.9038744	56.2023163	2.839257	69.79852	1.365130	-5.32337	261.1989	New mission
42400		52.98803	56.2917284	2.846504	69.81345	1.456753	-5.44224	260.8492	New mission
42500		53.07219	56.3811405	2.853752	69.82837	1.548376	-5.56112	260.49965	New mission
42600		53.1563588	56.4705526	2.861000	69.84330	1.640000	-5.68		260.15		New mission
42700		53.12978	56.44231	2.862430	69.87822	1.640820	-5.67716	260.2800	New mission
42800		53.13863	56.4517227	2.905286	70.25747	1.80388		-5.67144	260.3133	New mission
42900		53.14748	56.46113	2.948143	70.63672	1.96694		-5.66572	260.3466	New mission
43000		53.1563314	56.47054	2.991000	71.01598	2.13		-5.66		260.38		New mission
43100		52.73639	56.02443	3.014629	71.57700	2.113172	-5.615286	258.322998	New mission
43200		52.8063756	56.09878	3.013690	71.74440	2.057643	-5.58773	258.6624	New mission
43300		52.8763612	56.17313	3.012752	71.91180	2.002114	-5.56019	259.0019	New mission
43400		52.9463468	56.24748	3.011814	72.07921	1.946586	-5.532643	259.341499	New mission
43500		53.0163324	56.32183	3.010876	72.24661	1.891057	-5.50509	259.6809	New mission
43600		53.086318	56.39619	3.009938	72.41402	1.835528	-5.47754	260.0204	New mission
43700		53.1563036	56.47054	3.009000	72.58142	1.78		-5.45		260.36		New mission
43800		53.08720	56.39713	3.012911	72.67578	1.777686	-5.457085	260.0215	New mission
43900		53.10101	56.41181	3.021328	72.69986	1.7521488	-5.523668	260.0652	New mission
44000		53.11483	56.42649	3.029746	72.72394	1.7266116	-5.590251	260.1089	New mission
44100		53.12864	56.44117	3.038164	72.74802	1.701074	-5.656834	260.1526	New mission
44200		53.14246	56.45585	3.046582	72.77210	1.675537	-5.723417	260.1963	New mission
44300		53.15627	56.4705398	3.055000	72.79618	1.650000	-5.79		260.24		New mission
44400		53.06590	56.37453	3.060193	72.91994	1.652805	-5.780157	259.797592	New mission
44500		53.08397	56.3937314	3.078154	73.20658	1.660244	-5.6521256	259.8060	New mission
44600		53.10204	56.4129328	3.096115	73.49322	1.667683	-5.52409	259.8145	New mission
44700		53.12011	56.4321342	3.114077	73.77987	1.675122	-5.3960628	259.8230	New mission
44800		53.13818	56.4513356	3.132038	74.06651	1.682561	-5.2680314	259.8315	New mission
44900		53.1562558	56.470537	3.150000	74.35315	1.69		-5.14		259.8400	New mission
45000		53.13499	56.44794	3.148740	74.38289	1.689324	-5.137944	259.7360	New mission
45100		53.14207	56.45547	3.136826	74.71018	1.502882	-5.07862	259.594		New mission
45200		53.14915	56.46300	3.124913	75.03747	1.316441	-5.01931	259.452		New mission
45300		53.1562361	56.4705343	3.113000	75.36476	1.130000	-4.96		259.31		New mission
45400		52.62998	55.91147	3.143818	76.11088	1.141187	-4.910896	256.742831	New mission
45500		52.76153	56.051235	3.136863	76.24365	1.19839025	-4.88067	257.3196	New mission
45600		52.8930931	56.191		3.129909	76.37643	1.2555935	-4.850448	257.8964	New mission
45700		53.02464	56.330765	3.122954	76.50921	1.31279675	-4.820224	258.4732	New mission
45800		53.1562062	56.47053	3.116000	76.64199	1.37		-4.79		259.05		New mission
45900		52.66185	55.94535	3.144978	77.35476	1.357259	-4.745453	256.6408	New mission
46000		52.74423	56.03287	3.147481	77.41539	1.342715	-4.74621	256.9856	New mission
46100		52.8266255	56.12040	3.149985	77.47603	1.328172	-4.74696	257.3305	New mission
46200		52.90901	56.20793	3.152489	77.53667	1.3136295	-4.74772	257.6753	New mission
46300		52.991401	56.29546	3.154992	77.59731	1.299086	-4.74848	258.0202	New mission
46400		53.07378	56.38299	3.157496	77.65795	1.284543	-4.74924	258.3651	New mission
46500		53.1561765	56.47052	3.160000	77.71858	1.27		-4.75		258.71		New mission
46600		52.65650	55.93970	3.189704	78.44914	1.281938	-4.70535	256.278126	New mission
46700		52.7397745	56.02817	3.189420	78.47714	1.296615	-4.64612	256.670105	New mission
46800		52.823049	56.11664	3.189136	78.50515	1.311292	-4.5869		257.0620	New mission
46900		52.9063235	56.20511	3.188852	78.53315	1.325969	-4.527675	257.454063	New mission
47000		52.989598	56.29358	3.188568	78.56116	1.340646	-4.46845	257.846042	New mission
47100		53.07287	56.38205	3.188284	78.58916	1.355323	-4.409225	258.238021	New mission
47200		53.156147	56.4705211	3.188000	78.61717	1.37		-4.35000	258.63		New mission
47300		52.64584	55.92840	3.157395	79.37189	1.383152	-4.39176	261.112848	New mission
47400		52.7308863	56.0187527	3.141495	79.42694	1.522626	-4.40146	260.7273	New mission
47500		52.8159326	56.10910	3.125596	79.48200	1.662101	-4.41117	260.3418	New mission
47600		52.9009789	56.1994581	3.109697	79.53706	1.801576	-4.42088	259.9564	New mission
47700		52.9860252	56.2898108	3.093798	79.59212	1.941050	-4.43058	259.5709	New mission
47800		53.07107	56.3801635	3.077899	79.64718	2.080525	-4.44029	259.1854	New mission
47900		53.1561178	56.4705162	3.062000	79.70224	2.22		-4.45		258.8		New mission
48000		53.07638	56.38581	3.066593	79.82180	2.223330	-4.45667	259.1882	New mission
48100		53.09232	56.40275	3.066274	80.08667	2.336664	-4.545336	259.17056	New mission
48200		53.10826	56.41969	3.065955	80.35155	2.449998	-4.634002	259.15292	New mission
48300		53.12421	56.43663	3.065637	80.61643	2.563332	-4.72266	259.13528	New mission
48400		53.14015	56.45357	3.065318	80.88130	2.676666	-4.811334	259.11764	New mission
48500		53.1560986	56.47051	3.065000	81.14618	2.79		-4.9		259.1		New mission
48600		52.74148	56.03004	3.041093	81.77912	2.768238	-4.86178	261.1209	New mission
48700		52.84512	56.14015	3.044319	81.82716	2.753678	-4.83383	260.718175	New mission
48800		52.94877	56.25027	3.047546	81.87520	2.739119	-4.80589	260.31545	New mission
48900		53.05242	56.36039	3.050773	81.92325	2.7245595	-4.777945	259.912725	New mission
49000		53.1560705	56.4705077	3.054000	81.97129	2.71		-4.75		259.51		New mission
49100		53.05507	56.36321	3.048197	82.12704	2.704851	-4.740975	260.003069	New mission
49200		53.0752647	56.38466	3.019157	82.35698	2.5718808	-4.66278	259.9784	New mission
49300		53.09545	56.40612	2.990118	82.58693	2.438910	-4.584585	259.9538	New mission
49400		53.1156541	56.42758	2.961078	82.81688	2.3059404	-4.50639	259.9292	New mission
49500		53.1358488	56.44904	2.932039	83.04683	2.1729702	-4.42819	259.9046	New mission
49600		53.15604	56.4705033	2.903000	83.27677	2.04		-4.35000	259.88		New mission
49700		52.66700	55.95097	2.929707	84.04292	2.058768	-4.39002	262.270896	New mission
49800		52.74850	56.03755	2.934255	84.09607	2.072306	-4.55168	261.9074	New mission
49900		52.8300053	56.12414	2.938804	84.14923	2.085845	-4.71334	261.5439	New mission
50000		52.91150	56.21073	2.943353	84.20238	2.099384	-4.87501	261.180448	New mission
50100		52.9930106	56.29732	2.947902	84.25554	2.112922	-5.03667	260.8169	New mission
50200		53.07451	56.38391	2.952451	84.30869	2.126461	-5.19833	260.4534	New mission
50300		53.1560159	56.4704987	2.957000	84.36185	2.14		-5.36		260.0900	New mission
50400		53.07628	56.38579	2.961435	84.48839	2.143210	-5.36804	260.480135	New mission
50500		53.09222	56.40273	2.964348	84.70496	2.256567	-5.412432	260.438108	New mission
50600		53.10816	56.41967	2.967261	84.92154	2.369926	-5.456824	260.396081	New mission
50700		53.12410	56.43661	2.970174	85.13811	2.483284	-5.50121	260.354054	New mission
50800		53.14004	56.45355	2.973087	85.35469	2.596642	-5.545608	260.312027	New mission
50900		53.1559889	56.4704943	2.976000	85.57126	2.71		-5.59		260.27		New mission
51000		52.65632	55.93967	2.948025	86.37563	2.684526	-5.642546	262.7165	New mission
51100		52.73959	56.02814	2.943687	86.41958	2.612105	-5.66712	262.3504	New mission
51200		52.8228701	56.11661	2.939350	86.46354	2.539684	-5.69169	261.9843	New mission
51300		52.90614	56.20508	2.935012	86.50750	2.467263	-5.716273	261.61825	New mission
51400		52.9894202	56.29355	2.930675	86.55146	2.394842	-5.74084	261.2521	New mission
51500		53.07269	56.38202	2.926337	86.59542	2.322421	-5.76542	260.8860	New mission
51600		53.1559703	56.4704911	2.922000	86.63938	2.25		-5.79		260.52		New mission
51700		53.11344	56.42531	2.924337	86.70870	2.2482		-5.785368	260.728416	New mission
51800		53.12760	56.4403688	2.946224	86.88622	2.2088		-5.70024	260.7156	New mission
51900		53.14177	56.4554276	2.968112	87.06374	2.1694		-5.61512	260.7028	New mission
52000		53.1559424	56.4704864	2.990000	87.24126	2.13		-5.53		260.69		New mission
52100		52.64564	55.92836	2.961296	88.07878	2.150448	-5.583088	263.192624	New mission
52200		52.73068	56.01871	2.960580	88.28534	2.24204		-5.61424	262.8305	New mission
52300		52.8157315	56.10906	2.959864	88.49190	2.333632	-5.645392	262.468416	New mission
52400		52.90077	56.1994207	2.959148	88.69847	2.425224	-5.676544	262.106312	New mission
52500		52.98582	56.28977	2.958432	88.90503	2.516816	-5.707696	261.744208	New mission
52600		53.07086	56.38012	2.957716	89.11160	2.608408	-5.73884	261.3821	New mission
52700		53.15591	56.4704814	2.957000	89.31816	2.7		-5.77000	261.02		New mission
52800		52.74661	56.03565	2.979769	90.00591	2.679210	-5.725571	263.029854	New mission
52900		52.81482	56.10812	2.976140	90.05093	2.656008	-5.68964	262.761545	New mission
53000		52.88303	56.18059	2.972512	90.09596	2.632806	-5.653714	262.493236	New mission
53100		52.95125	56.25306	2.968884	90.14099	2.609605	-5.6177855	262.224927	New mission
53200		53.01946	56.32553	2.965256	90.18602	2.586403	-5.581857	261.956618	New mission
53300		53.08768	56.39800	2.961628	90.23105	2.563201	-5.5459285	261.688309	New mission
53400		53.15589	56.470478	2.958000	90.27608	2.54		-5.51		261.42		New mission
53500		53.02300	56.32930	2.950605	90.50177	2.54635		-5.523775	262.07355	New mission
53600		53.06728	56.37635	2.911403	90.66296	2.777566	-5.57585	262.0890	New mission
53700		53.11157	56.42341	2.872201	90.82415	3.008783	-5.62792	262.1045	New mission
53800		53.1558699	56.4704726	2.833000	90.98534	3.24		-5.68		262.12		New mission
53900		52.68278	55.96788	2.858213	91.79511	3.268836	-5.73055	264.452868	New mission
54000		52.76162	56.05164	2.864177	91.79578	3.477363	-5.85545	264.2507	New mission
54100		52.84046	56.13540	2.870142	91.79645	3.685890	-5.98036	264.0485	New mission
54200		52.91931	56.2191736	2.876106	91.79712	3.894418	-6.10527	263.8464	New mission
54300		52.99815	56.30293	2.882071	91.79780	4.102945	-6.23018	263.6442	New mission
54400		53.07699	56.38670	2.888035	91.79847	4.311472	-6.35509	263.4421	New mission
54500		53.1558433	56.47046	2.894000	91.79914	4.520000	-6.48		263.24		New mission
54600		52.63491	55.91705	2.922361	92.69878	4.475704	-6.416496	265.819752	New mission
54700		52.72172	56.00928	2.931134	92.75794	4.35142		-6.37874	265.4864	New mission
54800		52.80854	56.10152	2.939907	92.81711	4.227136	-6.34099	265.153168	New mission
54900		52.89536	56.19375	2.948680	92.87627	4.102852	-6.303248	264.819876	New mission
55000		52.98218	56.28599	2.957453	92.93544	3.978568	-6.26549	264.486584	New mission
55100		53.06900	56.37822	2.966226	92.99460	3.854284	-6.22774	264.1532	New mission
55200		53.1558253	56.47046	2.975000	93.05377	3.73		-6.19		263.82		New mission
55300		53.13456	56.44787	2.976190	93.09099	3.731492	-6.18752	263.925528	New mission
55400		53.14163	56.4553997	2.977460	93.49019	3.817661	-6.10168	264.0970	New mission
55500		53.14871	56.4629294	2.978730	93.88940	3.903830	-6.01584	264.2685	New mission
55600		53.1557977	56.4704591	2.980000	94.28861	3.99		-5.93		264.44		New mission
55700		52.65081	55.93398	2.951690	95.18435	3.952095	-5.98633	261.92782	New mission
55800		52.73496	56.0233925	2.955408	95.20931	3.760079	-6.020275	262.3231	New mission
55900		52.81912	56.11280	2.959126	95.23427	3.568063	-6.05422	262.7185	New mission
56000		52.90328	56.20221	2.962845	95.25923	3.376047	-6.088165	263.1139	New mission
56100		52.98744	56.29163	2.966563	95.28420	3.184031	-6.12211	263.5092	New mission
56200		53.07160	56.38104	2.970281	95.30916	2.992015	-6.156055	263.9046	New mission
56300		53.15576	56.47045	2.974000	95.33412	2.800000	-6.19		264.3		New mission
56400		53.07603	56.38574	2.969539	95.47713	2.804200	-6.19928	263.90355	New mission
56500		53.0919722	56.4026822	2.957031	95.63841	2.82136		-6.251424	263.86484	New mission
56600		53.1079144	56.4196244	2.944523	95.79970	2.83852		-6.303568	263.82613	New mission
56700		53.1238566	56.4365666	2.932015	95.96099	2.85568		-6.355712	263.78742	New mission
56800		53.1397988	56.45350	2.919507	96.12228	2.87284		-6.407856	263.7487	New mission
56900		53.155741	56.470451	2.907000	96.28356	2.89		-6.46		263.71		New mission
57000		52.64013	55.92268	2.935197	97.21751	2.918033	-6.522662	261.1520	New mission
57100		52.72606	56.01397	2.960164	97.23139	2.918360	-6.54721	261.4933	New mission
57200		52.81199	56.10526	2.985131	97.24528	2.918688	-6.57177	261.8346	New mission
57300		52.8979259	56.19656	3.010098	97.25916	2.919016	-6.596331	262.176		New mission
57400		52.98385	56.28785	3.035065	97.27305	2.919344	-6.62088	262.5173	New mission
57500		53.06978	56.37915	3.060032	97.28694	2.919672	-6.64544	262.8586	New mission
57600		53.15572	56.47044	3.085000	97.30082	2.92		-6.67		263.2		New mission
57700		53.13445	56.44786	3.086234	97.33974	2.921167	-6.667332	263.09472	New mission
57800		53.141531	56.4553882	3.108822	97.69693	3.040778	-6.644888	262.9331	New mission
57900		53.148612	56.4629164	3.131411	98.05413	3.160389	-6.62244	262.7715	New mission
58000		53.155693	56.4704446	3.154000	98.41133	3.280000	-6.60000	262.61		New mission
58100		52.64539	55.92832	3.123721	99.35607	3.248512	-6.53664	265.131056	Mission: 3 WP
58200		52.7304356	56.01867	3.096434	99.22922	3.253759	-5.6622		264.75088	Mission: 3 WP
58300		52.8154812	56.10902	3.069147	99.10238	3.259008	-4.78776	264.370704	Mission: 3 WP
58400		52.90052	56.1993803	3.041860	98.97553	3.264256	-3.91332	263.9905	Mission: 3 WP
58500		52.98557	56.28973	3.014573	98.84869	3.269504	-3.03888	263.6103	Mission: 3 WP
58600		53.07061	56.38008	2.987286	98.72185	3.274752	-2.16444	263.2301	Mission: 3 WP
58700		53.1556636	56.47044	2.960000	98.59500	3.280000	-1.29		262.85		Mission: 3 WP
58800		52.65600	55.93961	2.932176	99.52180	3.280000	-1.30212	265.3207	Mission: 3 WP
58900		52.73927	56.02808	2.844480	99.48931	3.085		-0.72343	264.9605	Mission: 3 WP
59000		52.82254	56.11655	2.756784	99.45682	2.889999	-0.14474	264.6004	Mission: 3 WP
59100		52.90581	56.2050238	2.669088	99.42433	2.695		0.433940	264.2403	Mission: 3 WP
59200		52.98909	56.29349	2.581392	99.39184	2.5		1.012626	263.8802	Mission: 3 WP
59300		53.07236	56.38196	2.493696	99.35935	2.304999	1.591313	263.5201	Mission: 3 WP
59400		53.15563	56.4704376	2.406000	99.32686	2.11		2.170000	263.16		Mission: 3 WP
59500		52.66660	55.95090	2.383864	98.41305	2.090588	2.189964	260.7389	Mission: 3 WP
59600		52.74810	56.03748	2.318053	98.54321	1.902156	2.689969	261.14075	Mission: 3 WP
59700		52.82960	56.1240787	2.252242	98.67338	1.713725	3.189975	261.5426	Mission: 3 WP
59800		52.9111116	56.21066	2.186432	98.80355	1.525294	3.689982	261.9444	Mission: 3 WP
59900		52.99261	56.2972574	2.120621	98.93372	1.336862	4.189988	262.3463	Mission: 3 WP
60000		53.07411	56.38384	2.054810	99.06389	1.148431	4.689994	262.74815	Mission: 3 WP
60100		53.1556232	56.4704361	1.989000	99.19406	0.96		5.19		263.15		Mission: 3 WP
60200		53.03336	56.34055	1.984425	99.42220	0.962208	5.201937	262.5447	Mission: 3 WP
60300		53.07410	56.38384	1.687616	99.51287	1.454805	5.304624	262.6964	Mission: 3 WP
60400		53.11485	56.42713	1.390808	99.60354	1.947402	5.407312	262.8482	Mission: 3 WP
60500		53.1556086	56.4704349	1.094000	99.69421	2.44		5.51		263.0		Mission: 3 WP
60600		52.65063	55.93396	1.083607	98.74711	2.41682		5.457655	260.5015	Mission: 4 WP
60700		52.73479	56.02337	0.981005	98.97513	2.10235		4.191379	260.9045	Mission: 4 WP
60800		52.81895	56.1127849	0.878404	99.20315	1.78788		2.925103	261.3076	Mission: 4 WP
60900		52.9031159	56.20219	0.775803	99.43117	1.47341		1.658827	261.71075	Mission: 4 WP
61000		52.98727	56.29160	0.673202	99.65919	1.15894		0.392551	262.1138	Mission: 4 WP
61100		53.07143	56.38102	0.570601	99.88722	0.84447		-0.87372	262.5169	Mission: 4 WP
61200		53.1556018	56.4704347	0.468000	100.1152	0.530000	-2.13999	262.92		Mission: 4 WP
61300		52.65593	55.93961	0.472399	101.0563	0.525018	-2.160116	260.448552	Mission: 4 WP
61400		52.73920	56.02808	0.477165	100.8712	0.490848	-2.68176	260.8487	Mission: 4 WP
61500		52.82248	56.11655	0.481932	100.6861	0.456678	-3.20341	261.2490	Mission: 4 WP
61600		52.9057638	56.205022	0.486699	100.5010	0.422509	-3.72505	261.649276	Mission: 4 WP
61700		52.98904	56.29349	0.491466	100.3159	0.388339	-4.24670	262.0495	Mission: 4 WP
61800		53.07231	56.38196	0.496233	100.1308	0.354169	-4.76835	262.4497	Mission: 4 WP
61900		53.1555976	56.470434	0.501000	99.94570	0.32		-5.29		262.85		Mission: 4 WP
62000		52.65061	55.93396	0.505759	98.99621	0.32304		-5.340255	260.352925	Mission: 4 WP
62100		52.73477	56.02337	0.560465	99.18318	0.447533	-5.73187	260.7657	Mission: 4 WP
62200		52.81893	56.1127841	0.615172	99.37016	0.572026	-6.12350	261.1786	Mission: 4 WP
62300		52.90310	56.20219	0.669879	99.55714	0.69652		-6.5151275	261.5914	Mission: 4 WP
62400		52.98726	56.2916082	0.724586	99.74411	0.821013	-6.90675	262.0043	Mission: 4 WP
62500		53.07142	56.38102	0.779293	99.93109	0.945506	-7.29837	262.4171	Mission: 4 WP
62600		53.1555938	56.4704323	0.834000	100.1180	1.07		-7.69		262.83		Mission: 4 WP
62700		53.11838	56.43090	0.834583	100.0479	1.069251	-7.69538	263.013981	Mission: 4 WP
62800		53.1307819	56.4440762	0.965055	100.0571	0.989500	-7.79692	262.9859	Mission: 4 WP
62900		53.14318	56.4572524	1.095527	100.0664	0.909750	-7.89846	262.9579	Mission: 4 WP
63000		53.15558	56.4704286	1.226000	100.0756	0.830000	-8.0		262.93		Mission: 4 WP
63100		53.06522	56.37442	1.228084	100.2458	0.831411	-8.0136		262.483019	Mission: 4 WP
63200		53.08329	56.3936208	1.313267	100.1400	1.0171288	-8.02888	257.1824	Mission: 4 WP
63300		53.10136	56.4128216	1.398450	100.0342	1.2028466	-8.04416	251.8818	Mission: 4 WP
63400		53.11943	56.43202	1.483633	99.92841	1.3885644	-8.05944	246.5812	Mission: 4 WP
63500		53.13750	56.45122	1.568816	99.82261	1.574282	-8.07472	241.2806	Mission: 4 WP
63600		53.1555739	56.47042	1.654000	99.71681	1.759999	-8.09		235.9800	Mission: 4 WP
63700		52.63996	55.92266	1.670043	98.74956	1.777072	-8.168473	238.2690	Mission: 4 WP
63800		52.72589	56.01395	1.778702	98.90841	2.405893	-8.3087275	238.4758	Mission: 4 WP
63900		52.81182	56.1052457	1.887362	99.06727	3.034714	-8.448982	238.6826	Mission: 4 WP
64000		52.89775	56.19653	1.996021	99.22612	3.663536	-8.5892365	238.8895	Mission: 4 WP
64100		52.98369	56.2878314	2.104681	99.38498	4.292357	-8.729491	239.0963	Mission: 4 WP
64200		53.06962	56.37912	2.213340	99.54383	4.921178	-8.8697455	239.3031	Mission: 4 WP
64300		53.1555585	56.4704171	2.322000	99.70269	5.550000	-9.01		239.51		Mission: 4 WP
64400		52.63994	55.92265	2.344523	98.73557	5.496164	-9.09739	241.833247	Mission: 4 WP
64500		52.72587	56.01394	2.436269	99.03003	4.945136	-9.112825	241.5043	Mission: 4 WP
64600		52.8118063	56.10523	2.528015	99.32450	4.394109	-9.12826	241.175498	Mission: 4 WP
64700		52.89773	56.19652	2.619761	99.61896	3.843082	-9.14369	240.8466	Mission: 4 WP
64800		52.9836726	56.28782	2.711507	99.91343	3.292054	-9.15913	240.517749	Mission: 4 WP
64900		53.06960	56.37911	2.803254	100.2078	2.741027	-9.174565	240.1888	Mission: 4 WP
65000		53.15553	56.47040	2.895000	100.5023	2.189999	-9.19		239.86		Mission: 4 WP
65100		52.63993	55.92264	2.923081	99.52749	2.168757	-9.100857	242.186642	Mission: 4 WP
65200		52.72586	56.01393	2.980234	99.67913	2.060630	-9.0440475	241.880535	Mission: 4 WP
65300		52.81179	56.1052275	3.037387	99.83078	1.952504	-8.987238	241.574428	Mission: 4 WP
65400		52.8977267	56.19652	3.094540	99.98243	1.8443785	-8.9304285	241.2683	Mission: 4 WP
65500		52.98365	56.287815	3.151693	100.1340	1.736252	-8.873619	240.962214	Mission: 4 WP
65600		53.06959	56.37910	3.208847	100.2857	1.628126	-8.8168095	240.656107	Mission: 4 WP
65700		53.1555234	56.4704025	3.266000	100.4373	1.52		-8.76		240.35		Mission: 4 WP
65800		53.15020	56.46475	3.266326	100.4273	1.519848	-8.760876	240.374035	Mission: 4 WP
65900		53.15196	56.4666305	3.439884	100.3289	1.409898	-9.04725	240.5193	Mission: 4 WP
66000		53.15373	56.468511	3.613442	100.2305	1.299949	-9.33362	240.6646	Mission: 4 WP
66100		53.1554961	56.4703915	3.787000	100.1321	1.19		-9.62000	240.81		Mission: 4 WP
66200		52.75151	56.04121	3.815781	100.8931	1.199044	-9.69311	242.640156	Mission: 4 WP
66300		52.8188358	56.11273	3.896150	100.8689	1.23087		-9.695925	242.36513	Mission: 4 WP
66400		52.8861616	56.18426	3.976520	100.8448	1.262696	-9.69874	242.090104	Mission: 4 WP
66500		52.9534874	56.25579	4.056890	100.8206	1.294522	-9.701555	241.815078	Mission: 4 WP
66600		53.0208132	56.32732	4.137260	100.7965	1.326348	-9.70437	241.540052	Mission: 4 WP
66700		53.088139	56.39885	4.217630	100.7723	1.358174	-9.707185	241.265026	Mission: 4 WP
66800		53.1554648	56.47037	4.298000	100.7482	1.390000	-9.71		240.99		Mission: 4 WP
66900		53.05978	56.36873	4.305736	100.5668	1.387498	-9.692522	241.4237	Mission: 4 WP
67000		53.07890	56.38905	4.418388	100.5499	1.357998	-9.5440176	241.42096	Mission: 4 WP
67100		53.09803	56.40938	4.531041	100.5331	1.3284988	-9.3955132	241.41822	Mission: 4 WP
67200		53.11716	56.42971	4.643694	100.5162	1.2989992	-9.24700	241.41548	Mission: 4 WP
67300		53.13629	56.45003	4.756347	100.4994	1.2694996	-9.09850	241.4127	Mission: 4 WP
67400		53.15542	56.4703647	4.869000	100.4825	1.24		-8.95000	241.41		Mission: 4 WP
67500		53.05443	56.36307	4.878251	100.6735	1.237644	-8.967005	241.868679	Mission: 4 WP
67600		53.07462	56.38452	4.933400	100.4183	1.2141152	-9.013604	241.8129	Mission: 4 WP
67700		53.09481	56.40598	4.988550	100.1631	1.1905864	-9.06020	241.7572	Mission: 4 WP
67800		53.11501	56.42744	5.043700	99.90790	1.167057	-9.106802	241.7014	Mission: 4 WP
67900		53.13520	56.44889	5.098850	99.65270	1.143528	-9.153401	241.6457	Mission: 4 WP
68000		53.1554042	56.47035	5.154000	99.39750	1.12		-9.20000	241.59		Mission: 4 WP
68100		52.71952	56.00729	5.196263	98.58244	1.129184	-9.12456	243.5710	Mission: 4 WP
68200		52.82848	56.1230518	5.244697	99.16768	1.156888	-9.07342	243.12075	Mission: 4 WP
68300		52.93744	56.2388136	5.293131	99.75292	1.184591	-9.02228	242.6705	Mission: 4 WP
68400		53.04640	56.35457	5.341566	100.3381	1.212296	-8.97114	242.2202	Mission: 4 WP
68500		53.1553633	56.47033	5.390000	100.9234	1.24		-8.92		241.77		Mission: 4 WP
68600		53.10220	56.41386	5.395390	100.8224	1.24124		-8.92892	242.01177	Mission: 4 WP
