GPS_TimeUS	GPS_Lng	GPS_Lat	GPS_Spd	BARO_Alt	AHR2_Roll	AHR2_Pitch	AHR2_Yaw	MSG_Message
101645574<class 'int'>	53.157683<class 'float'>	56.4707699<class 'float'>	0.049000002443790436<class 'float'>	0.5284095406532288<class 'float'>	0.59<class 'float'>	1.75<class 'float'>	19.63<class 'float'>	b'u-blox 1 HW: 00080000 SW: EXT CORE 3.01 (107900)\x00\x00\x00\x00\x00\x00\x00\x00\x00\x00\x00\x00\x00\x00\x00\x00'<class 'str'>
102045687<class 'int'>	53.157682699999995<class 'float'>	56.4707693<class 'float'>	0.04800000041723251<class 'float'>	0.6386126279830933<class 'float'>	0.53<class 'float'>	1.69<class 'float'>	19.63<class 'float'>	b'u-blox 1 HW: 00080000 SW: EXT CORE 3.01 (107900)\x00\x00\x00\x00\x00\x00\x00\x00\x00\x00\x00\x00\x00\x00\x00\x00'<class 'str'>
102646139<class 'int'>	53.157682199999996<class 'float'>	56.4707684<class 'float'>	0.0950000062584877<class 'float'>	0.6612183451652527<class 'float'>	0.54<class 'float'>	1.62<class 'float'>	19.62<class 'float'>	b'u-blox 1 HW: 00080000 SW: EXT CORE 3.01 (107900)\x00\x00\x00\x00\x00\x00\x00\x00\x00\x00\x00\x00\x00\x00\x00\x00'<class 'str'>
103245965<class 'int'>	53.1576819<class 'float'>	56.470767599999995<class 'float'>	0.023000001907348633<class 'float'>	0.46341800689697266<class 'float'>	0.51<class 'float'>	1.62<class 'float'>	19.66<class 'float'>	b'u-blox 1 HW: 00080000 SW: EXT CORE 3.01 (107900)\x00\x00\x00\x00\x00\x00\x00\x00\x00\x00\x00\x00\x00\x00\x00\x00'<class 'str'>
103665974<class 'int'>	53.1576816<class 'float'>	56.4707672<class 'float'>	0.02500000037252903<class 'float'>	0.4690694510936737<class 'float'>	0.3<class 'float'>	1.48<class 'float'>	19.68<class 'float'>	b'u-blox 1 HW: 00080000 SW: EXT CORE 3.01 (107900)\x00\x00\x00\x00\x00\x00\x00\x00\x00\x00\x00\x00\x00\x00\x00\x00'<class 'str'>
104445980<class 'int'>	53.1576812<class 'float'>	56.470766299999994<class 'float'>	0.06100000441074371<class 'float'>	0.5538410544395447<class 'float'>	0.4<class 'float'>	1.46<class 'float'>	19.75<class 'float'>	b'u-blox 1 HW: 00080000 SW: EXT CORE 3.01 (107900)\x00\x00\x00\x00\x00\x00\x00\x00\x00\x00\x00\x00\x00\x00\x00\x00'<class 'str'>
104845959<class 'int'>	53.157680899999995<class 'float'>	56.470765799999995<class 'float'>	0.014000000432133675<class 'float'>	0.5679696202278137<class 'float'>	0.32<class 'float'>	1.49<class 'float'>	19.78<class 'float'>	b'u-blox 1 HW: 00080000 SW: EXT CORE 3.01 (107900)\x00\x00\x00\x00\x00\x00\x00\x00\x00\x00\x00\x00\x00\x00\x00\x00'<class 'str'>
105446489<class 'int'>	53.1576806<class 'float'>	56.470765199999995<class 'float'>	0.052000001072883606<class 'float'>	0.6188325881958008<class 'float'>	0.26<class 'float'>	1.58<class 'float'>	19.81<class 'float'>	b'Mission: 1 Takeoff\x00\x00\x00\x00\x00\x00\x00\x00\x00\x00\x00\x00\x00\x00\x00\x00\x00\x00\x00\x00\x00\x00\x00\x00\x00\x00\x00\x00\x00\x00\x00\x00\x00\x00\x00\x00\x00\x00\x00\x00\x00\x00\x00\x00\x00\x00'<class 'str'>
106047426<class 'int'>	53.157680299999996<class 'float'>	56.470764499999994<class 'float'>	0.00800000037997961<class 'float'>	-0.1864974945783615<class 'str'>	0.12<class 'float'>	1.43<class 'float'>	19.96<class 'float'>	b'Mission: 1 Takeoff\x00\x00\x00\x00\x00\x00\x00\x00\x00\x00\x00\x00\x00\x00\x00\x00\x00\x00\x00\x00\x00\x00\x00\x00\x00\x00\x00\x00\x00\x00\x00\x00\x00\x00\x00\x00\x00\x00\x00\x00\x00\x00\x00\x00\x00\x00'<class 'str'>
106447103<class 'int'>	53.157680299999996<class 'float'>	56.4707643<class 'float'>	0.13600000739097595<class 'float'>	-0.31082916259765625<class 'str'>	-1.19<class 'str'>	-0.32<class 'str'>	19.8<class 'float'>	b'Mission: 1 Takeoff\x00\x00\x00\x00\x00\x00\x00\x00\x00\x00\x00\x00\x00\x00\x00\x00\x00\x00\x00\x00\x00\x00\x00\x00\x00\x00\x00\x00\x00\x00\x00\x00\x00\x00\x00\x00\x00\x00\x00\x00\x00\x00\x00\x00\x00\x00'<class 'str'>
107047163<class 'int'>	53.157681499999995<class 'float'>	56.4707637<class 'float'>	0.28200000524520874<class 'float'>	1.4128597974777222<class 'float'>	-2.36<class 'str'>	-0.59<class 'str'>	19.75<class 'float'>	b'Mission: 1 Takeoff\x00\x00\x00\x00\x00\x00\x00\x00\x00\x00\x00\x00\x00\x00\x00\x00\x00\x00\x00\x00\x00\x00\x00\x00\x00\x00\x00\x00\x00\x00\x00\x00\x00\x00\x00\x00\x00\x00\x00\x00\x00\x00\x00\x00\x00\x00'<class 'str'>
107667342<class 'int'>	53.1576832<class 'float'>	56.4707641<class 'float'>	0.25<class 'float'>	2.907665491104126<class 'float'>	-4.51<class 'str'>	-0.36<class 'str'>	19.82<class 'float'>	b'Mission: 1 Takeoff\x00\x00\x00\x00\x00\x00\x00\x00\x00\x00\x00\x00\x00\x00\x00\x00\x00\x00\x00\x00\x00\x00\x00\x00\x00\x00\x00\x00\x00\x00\x00\x00\x00\x00\x00\x00\x00\x00\x00\x00\x00\x00\x00\x00\x00\x00'<class 'str'>
108048039<class 'int'>	53.1576835<class 'float'>	56.470764499999994<class 'float'>	0.04200000315904617<class 'float'>	4.620051383972168<class 'float'>	-4.4<class 'str'>	1.17<class 'float'>	20.02<class 'float'>	b'EKF2 IMU0 in-flight yaw alignment complete\x00\x00\x00\x00\x00\x00\x00\x00\x00\x00\x00\x00\x00\x00\x00\x00\x00\x00\x00\x00\x00\x00'<class 'str'>
108653108<class 'int'>	53.157682799999996<class 'float'>	56.470764499999994<class 'float'>	0.14000000059604645<class 'float'>	6.182674407958984<class 'float'>	-4.2<class 'str'>	-0.01<class 'str'>	20.07<class 'float'>	b'EKF2 IMU0 in-flight yaw alignment complete\x00\x00\x00\x00\x00\x00\x00\x00\x00\x00\x00\x00\x00\x00\x00\x00\x00\x00\x00\x00\x00\x00'<class 'str'>
109240965<class 'int'>	53.1576824<class 'float'>	56.4707648<class 'float'>	0.0990000069141388<class 'float'>	7.349696636199951<class 'float'>	-4.48<class 'str'>	0.3<class 'float'>	20.02<class 'float'>	b'EKF2 IMU0 in-flight yaw alignment complete\x00\x00\x00\x00\x00\x00\x00\x00\x00\x00\x00\x00\x00\x00\x00\x00\x00\x00\x00\x00\x00\x00'<class 'str'>
109841524<class 'int'>	53.1576824<class 'float'>	56.4707648<class 'float'>	0.05900000408291817<class 'float'>	8.581709861755371<class 'float'>	-4.18<class 'str'>	-0.06<class 'str'>	20.11<class 'float'>	b'EKF2 IMU0 in-flight yaw alignment complete\x00\x00\x00\x00\x00\x00\x00\x00\x00\x00\x00\x00\x00\x00\x00\x00\x00\x00\x00\x00\x00\x00'<class 'str'>
110237596<class 'int'>	53.1576825<class 'float'>	56.4707649<class 'float'>	0.07100000232458115<class 'float'>	9.033824920654297<class 'float'>	-4.96<class 'str'>	0.01<class 'float'>	20.2<class 'float'>	b'Mission: 2 WP\x00\x00\x00\x00\x00\x00\x00\x00\x00\x00\x00\x00\x00\x00\x00\x00\x00\x00\x00\x00\x00\x00\x00\x00\x00\x00\x00\x00\x00\x00\x00\x00\x00\x00\x00\x00\x00\x00\x00\x00\x00\x00\x00\x00\x00\x00\x00\x00\x00\x00\x00'<class 'str'>
110859539<class 'int'>	53.157681499999995<class 'float'>	56.4707648<class 'float'>	0.2370000183582306<class 'float'>	10.59079647064209<class 'float'>	-9.620000000000001<class 'str'>	3.41<class 'float'>	20.28<class 'float'>	b'Mission: 2 WP\x00\x00\x00\x00\x00\x00\x00\x00\x00\x00\x00\x00\x00\x00\x00\x00\x00\x00\x00\x00\x00\x00\x00\x00\x00\x00\x00\x00\x00\x00\x00\x00\x00\x00\x00\x00\x00\x00\x00\x00\x00\x00\x00\x00\x00\x00\x00\x00\x00\x00\x00'<class 'str'>
111441369<class 'int'>	53.157676599999995<class 'float'>	56.4707637<class 'float'>	0.8440000414848328<class 'float'>	11.73238754272461<class 'float'>	-10.68<class 'str'>	4.28<class 'float'>	20.19<class 'float'>	b'Mission: 2 WP\x00\x00\x00\x00\x00\x00\x00\x00\x00\x00\x00\x00\x00\x00\x00\x00\x00\x00\x00\x00\x00\x00\x00\x00\x00\x00\x00\x00\x00\x00\x00\x00\x00\x00\x00\x00\x00\x00\x00\x00\x00\x00\x00\x00\x00\x00\x00\x00\x00\x00\x00'<class 'str'>
112044885<class 'int'>	53.1576659<class 'float'>	56.4707619<class 'float'>	1.4820001125335693<class 'float'>	12.102557182312012<class 'float'>	-10.620000000000001<class 'str'>	4.07<class 'float'>	15.860000000000001<class 'float'>	b'Mission: 2 WP\x00\x00\x00\x00\x00\x00\x00\x00\x00\x00\x00\x00\x00\x00\x00\x00\x00\x00\x00\x00\x00\x00\x00\x00\x00\x00\x00\x00\x00\x00\x00\x00\x00\x00\x00\x00\x00\x00\x00\x00\x00\x00\x00\x00\x00\x00\x00\x00\x00\x00\x00'<class 'str'>
112652475<class 'int'>	53.157650399999994<class 'float'>	56.470758499999995<class 'float'>	2.132000207901001<class 'float'>	13.439122200012207<class 'float'>	-11.39<class 'str'>	-1.9100000000000001<class 'str'>	343.72<class 'float'>	b'Mission: 2 WP\x00\x00\x00\x00\x00\x00\x00\x00\x00\x00\x00\x00\x00\x00\x00\x00\x00\x00\x00\x00\x00\x00\x00\x00\x00\x00\x00\x00\x00\x00\x00\x00\x00\x00\x00\x00\x00\x00\x00\x00\x00\x00\x00\x00\x00\x00\x00\x00\x00\x00\x00'<class 'str'>
113049932<class 'int'>	53.1576363<class 'float'>	56.4707558<class 'float'>	2.505000114440918<class 'float'>	14.337700843811035<class 'float'>	-6.08<class 'str'>	-7.15<class 'str'>	308.62<class 'float'>	b'Mission: 2 WP\x00\x00\x00\x00\x00\x00\x00\x00\x00\x00\x00\x00\x00\x00\x00\x00\x00\x00\x00\x00\x00\x00\x00\x00\x00\x00\x00\x00\x00\x00\x00\x00\x00\x00\x00\x00\x00\x00\x00\x00\x00\x00\x00\x00\x00\x00\x00\x00\x00\x00\x00'<class 'str'>
113652848<class 'int'>	53.157611499999994<class 'float'>	56.4707523<class 'float'>	2.7210001945495605<class 'float'>	14.925450325012207<class 'float'>	-1.48<class 'str'>	-7.4<class 'str'>	279.6<class 'float'>	b'Mission: 2 WP\x00\x00\x00\x00\x00\x00\x00\x00\x00\x00\x00\x00\x00\x00\x00\x00\x00\x00\x00\x00\x00\x00\x00\x00\x00\x00\x00\x00\x00\x00\x00\x00\x00\x00\x00\x00\x00\x00\x00\x00\x00\x00\x00\x00\x00\x00\x00\x00\x00\x00\x00'<class 'str'>
114234412<class 'int'>	53.1575839<class 'float'>	56.470748699999994<class 'float'>	3.0530002117156982<class 'float'>	16.10660171508789<class 'float'>	1.2<class 'float'>	-4.68<class 'str'>	256.87<class 'float'>	b'Mission: 2 WP\x00\x00\x00\x00\x00\x00\x00\x00\x00\x00\x00\x00\x00\x00\x00\x00\x00\x00\x00\x00\x00\x00\x00\x00\x00\x00\x00\x00\x00\x00\x00\x00\x00\x00\x00\x00\x00\x00\x00\x00\x00\x00\x00\x00\x00\x00\x00\x00\x00\x00\x00'<class 'str'>
114838599<class 'int'>	53.1575548<class 'float'>	56.4707437<class 'float'>	3.1780002117156982<class 'float'>	17.307531356811523<class 'float'>	2.0100000000000002<class 'float'>	-5.09<class 'str'>	256.83<class 'float'>	b'Mission: 2 WP\x00\x00\x00\x00\x00\x00\x00\x00\x00\x00\x00\x00\x00\x00\x00\x00\x00\x00\x00\x00\x00\x00\x00\x00\x00\x00\x00\x00\x00\x00\x00\x00\x00\x00\x00\x00\x00\x00\x00\x00\x00\x00\x00\x00\x00\x00\x00\x00\x00\x00\x00'<class 'str'>
115446213<class 'int'>	53.1575251<class 'float'>	56.4707387<class 'float'>	3.1030001640319824<class 'float'>	18.214588165283203<class 'float'>	1.99<class 'float'>	-4.79<class 'str'>	256.81<class 'float'>	b'Mission: 2 WP\x00\x00\x00\x00\x00\x00\x00\x00\x00\x00\x00\x00\x00\x00\x00\x00\x00\x00\x00\x00\x00\x00\x00\x00\x00\x00\x00\x00\x00\x00\x00\x00\x00\x00\x00\x00\x00\x00\x00\x00\x00\x00\x00\x00\x00\x00\x00\x00\x00\x00\x00'<class 'str'>
115842602<class 'int'>	53.1575054<class 'float'>	56.4707358<class 'float'>	2.9850001335144043<class 'float'>	19.3985652923584<class 'float'>	0.9500000000000001<class 'float'>	-4.65<class 'str'>	256.51<class 'float'>	b'Mission: 2 WP\x00\x00\x00\x00\x00\x00\x00\x00\x00\x00\x00\x00\x00\x00\x00\x00\x00\x00\x00\x00\x00\x00\x00\x00\x00\x00\x00\x00\x00\x00\x00\x00\x00\x00\x00\x00\x00\x00\x00\x00\x00\x00\x00\x00\x00\x00\x00\x00\x00\x00\x00'<class 'str'>
116451970<class 'int'>	53.1574768<class 'float'>	56.470731799999996<class 'float'>	3.011000156402588<class 'float'>	20.93292999267578<class 'float'>	0.89<class 'float'>	-5.41<class 'str'>	256.15<class 'float'>	b'Mission: 2 WP\x00\x00\x00\x00\x00\x00\x00\x00\x00\x00\x00\x00\x00\x00\x00\x00\x00\x00\x00\x00\x00\x00\x00\x00\x00\x00\x00\x00\x00\x00\x00\x00\x00\x00\x00\x00\x00\x00\x00\x00\x00\x00\x00\x00\x00\x00\x00\x00\x00\x00\x00'<class 'str'>
117058083<class 'int'>	53.1574483<class 'float'>	56.470727499999995<class 'float'>	3.0480000972747803<class 'float'>	21.947362899780273<class 'float'>	0.52<class 'float'>	-4.9<class 'str'>	255.71<class 'float'>	b'Mission: 2 WP\x00\x00\x00\x00\x00\x00\x00\x00\x00\x00\x00\x00\x00\x00\x00\x00\x00\x00\x00\x00\x00\x00\x00\x00\x00\x00\x00\x00\x00\x00\x00\x00\x00\x00\x00\x00\x00\x00\x00\x00\x00\x00\x00\x00\x00\x00\x00\x00\x00\x00\x00'<class 'str'>
117663861<class 'int'>	53.1574199<class 'float'>	56.470723199999995<class 'float'>	3.0860002040863037<class 'float'>	23.18220329284668<class 'float'>	0.63<class 'float'>	-4.26<class 'str'>	255.45000000000002<class 'float'>	b'Mission: 2 WP\x00\x00\x00\x00\x00\x00\x00\x00\x00\x00\x00\x00\x00\x00\x00\x00\x00\x00\x00\x00\x00\x00\x00\x00\x00\x00\x00\x00\x00\x00\x00\x00\x00\x00\x00\x00\x00\x00\x00\x00\x00\x00\x00\x00\x00\x00\x00\x00\x00\x00\x00'<class 'str'>
118044373<class 'int'>	53.1574013<class 'float'>	56.470720699999994<class 'float'>	2.88700008392334<class 'float'>	24.595062255859375<class 'float'>	1.2<class 'float'>	-4.38<class 'str'>	255.35<class 'float'>	b'Mission: 2 WP\x00\x00\x00\x00\x00\x00\x00\x00\x00\x00\x00\x00\x00\x00\x00\x00\x00\x00\x00\x00\x00\x00\x00\x00\x00\x00\x00\x00\x00\x00\x00\x00\x00\x00\x00\x00\x00\x00\x00\x00\x00\x00\x00\x00\x00\x00\x00\x00\x00\x00\x00'<class 'str'>
118646917<class 'int'>	53.157372599999995<class 'float'>	56.4707168<class 'float'>	3.064000129699707<class 'float'>	25.31562042236328<class 'float'>	0.64<class 'float'>	-4.36<class 'str'>	254.95000000000002<class 'float'>	b'Mission: 2 WP\x00\x00\x00\x00\x00\x00\x00\x00\x00\x00\x00\x00\x00\x00\x00\x00\x00\x00\x00\x00\x00\x00\x00\x00\x00\x00\x00\x00\x00\x00\x00\x00\x00\x00\x00\x00\x00\x00\x00\x00\x00\x00\x00\x00\x00\x00\x00\x00\x00\x00\x00'<class 'str'>
119251431<class 'int'>	53.157344099999996<class 'float'>	56.4707125<class 'float'>	3.075000047683716<class 'float'>	26.527854919433594<class 'float'>	0.55<class 'float'>	-3.49<class 'str'>	254.65<class 'float'>	b'Mission: 2 WP\x00\x00\x00\x00\x00\x00\x00\x00\x00\x00\x00\x00\x00\x00\x00\x00\x00\x00\x00\x00\x00\x00\x00\x00\x00\x00\x00\x00\x00\x00\x00\x00\x00\x00\x00\x00\x00\x00\x00\x00\x00\x00\x00\x00\x00\x00\x00\x00\x00\x00\x00'<class 'str'>
119852873<class 'int'>	53.1573156<class 'float'>	56.470708099999996<class 'float'>	3.0470001697540283<class 'float'>	27.584674835205078<class 'float'>	0.6<class 'float'>	-3.02<class 'str'>	254.69<class 'float'>	b'Mission: 2 WP\x00\x00\x00\x00\x00\x00\x00\x00\x00\x00\x00\x00\x00\x00\x00\x00\x00\x00\x00\x00\x00\x00\x00\x00\x00\x00\x00\x00\x00\x00\x00\x00\x00\x00\x00\x00\x00\x00\x00\x00\x00\x00\x00\x00\x00\x00\x00\x00\x00\x00\x00'<class 'str'>
120443580<class 'int'>	53.157286299999996<class 'float'>	56.4707034<class 'float'>	3.139000177383423<class 'float'>	28.87885284423828<class 'float'>	1.0<class 'float'>	-2.58<class 'str'>	254.88<class 'float'>	b'Mission: 2 WP\x00\x00\x00\x00\x00\x00\x00\x00\x00\x00\x00\x00\x00\x00\x00\x00\x00\x00\x00\x00\x00\x00\x00\x00\x00\x00\x00\x00\x00\x00\x00\x00\x00\x00\x00\x00\x00\x00\x00\x00\x00\x00\x00\x00\x00\x00\x00\x00\x00\x00\x00'<class 'str'>
120841917<class 'int'>	53.157266899999996<class 'float'>	56.4707003<class 'float'>	3.064000129699707<class 'float'>	30.18151092529297<class 'float'>	0.93<class 'float'>	-2.3000000000000003<class 'str'>	255.1<class 'float'>	b'Mission: 2 WP\x00\x00\x00\x00\x00\x00\x00\x00\x00\x00\x00\x00\x00\x00\x00\x00\x00\x00\x00\x00\x00\x00\x00\x00\x00\x00\x00\x00\x00\x00\x00\x00\x00\x00\x00\x00\x00\x00\x00\x00\x00\x00\x00\x00\x00\x00\x00\x00\x00\x00\x00'<class 'str'>
121448551<class 'int'>	53.1572378<class 'float'>	56.4706954<class 'float'>	3.073000192642212<class 'float'>	31.040529251098633<class 'float'>	0.63<class 'float'>	-2.66<class 'str'>	255.35<class 'float'>	b'Mission: 2 WP\x00\x00\x00\x00\x00\x00\x00\x00\x00\x00\x00\x00\x00\x00\x00\x00\x00\x00\x00\x00\x00\x00\x00\x00\x00\x00\x00\x00\x00\x00\x00\x00\x00\x00\x00\x00\x00\x00\x00\x00\x00\x00\x00\x00\x00\x00\x00\x00\x00\x00\x00'<class 'str'>
122049877<class 'int'>	53.157210199999994<class 'float'>	56.470690299999994<class 'float'>	2.7380001544952393<class 'float'>	32.37709426879883<class 'float'>	0.33<class 'float'>	-3.27<class 'str'>	255.74<class 'float'>	b'Mission: 2 WP\x00\x00\x00\x00\x00\x00\x00\x00\x00\x00\x00\x00\x00\x00\x00\x00\x00\x00\x00\x00\x00\x00\x00\x00\x00\x00\x00\x00\x00\x00\x00\x00\x00\x00\x00\x00\x00\x00\x00\x00\x00\x00\x00\x00\x00\x00\x00\x00\x00\x00\x00'<class 'str'>
122634317<class 'int'>	53.157183499999995<class 'float'>	56.4706858<class 'float'>	2.7270002365112305<class 'float'>	33.94819641113281<class 'float'>	1.05<class 'float'>	-3.91<class 'str'>	256.23<class 'float'>	b'Mission: 2 WP\x00\x00\x00\x00\x00\x00\x00\x00\x00\x00\x00\x00\x00\x00\x00\x00\x00\x00\x00\x00\x00\x00\x00\x00\x00\x00\x00\x00\x00\x00\x00\x00\x00\x00\x00\x00\x00\x00\x00\x00\x00\x00\x00\x00\x00\x00\x00\x00\x00\x00\x00'<class 'str'>
123049422<class 'int'>	53.1571657<class 'float'>	56.4706828<class 'float'>	2.946000099182129<class 'float'>	34.70831298828125<class 'float'>	1.01<class 'float'>	-3.63<class 'str'>	256.76<class 'float'>	b'Mission: 2 WP\x00\x00\x00\x00\x00\x00\x00\x00\x00\x00\x00\x00\x00\x00\x00\x00\x00\x00\x00\x00\x00\x00\x00\x00\x00\x00\x00\x00\x00\x00\x00\x00\x00\x00\x00\x00\x00\x00\x00\x00\x00\x00\x00\x00\x00\x00\x00\x00\x00\x00\x00'<class 'str'>
123653183<class 'int'>	53.1571384<class 'float'>	56.4706784<class 'float'>	2.880000114440918<class 'float'>	35.9007682800293<class 'float'>	1.56<class 'float'>	-4.0200000000000005<class 'str'>	257.02<class 'float'>	b'Mission: 2 WP\x00\x00\x00\x00\x00\x00\x00\x00\x00\x00\x00\x00\x00\x00\x00\x00\x00\x00\x00\x00\x00\x00\x00\x00\x00\x00\x00\x00\x00\x00\x00\x00\x00\x00\x00\x00\x00\x00\x00\x00\x00\x00\x00\x00\x00\x00\x00\x00\x00\x00\x00'<class 'str'>
124257873<class 'int'>	53.157111099999995<class 'float'>	56.470673899999994<class 'float'>	2.8960001468658447<class 'float'>	37.00844955444336<class 'float'>	1.12<class 'float'>	-4.48<class 'str'>	257.13<class 'float'>	b'Mission: 2 WP\x00\x00\x00\x00\x00\x00\x00\x00\x00\x00\x00\x00\x00\x00\x00\x00\x00\x00\x00\x00\x00\x00\x00\x00\x00\x00\x00\x00\x00\x00\x00\x00\x00\x00\x00\x00\x00\x00\x00\x00\x00\x00\x00\x00\x00\x00\x00\x00\x00\x00\x00'<class 'str'>
124842115<class 'int'>	53.1570843<class 'float'>	56.4706696<class 'float'>	2.952000141143799<class 'float'>	38.08504867553711<class 'float'>	1.43<class 'float'>	-4.66<class 'str'>	257.16<class 'float'>	b'Mission: 2 WP\x00\x00\x00\x00\x00\x00\x00\x00\x00\x00\x00\x00\x00\x00\x00\x00\x00\x00\x00\x00\x00\x00\x00\x00\x00\x00\x00\x00\x00\x00\x00\x00\x00\x00\x00\x00\x00\x00\x00\x00\x00\x00\x00\x00\x00\x00\x00\x00\x00\x00\x00'<class 'str'>
125444448<class 'int'>	53.157056499999996<class 'float'>	56.470664899999996<class 'float'>	3.015000104904175<class 'float'>	39.23511505126953<class 'float'>	0.63<class 'float'>	-4.1<class 'str'>	257.29<class 'float'>	b'Mission: 2 WP\x00\x00\x00\x00\x00\x00\x00\x00\x00\x00\x00\x00\x00\x00\x00\x00\x00\x00\x00\x00\x00\x00\x00\x00\x00\x00\x00\x00\x00\x00\x00\x00\x00\x00\x00\x00\x00\x00\x00\x00\x00\x00\x00\x00\x00\x00\x00\x00\x00\x00\x00'<class 'str'>
125842303<class 'int'>	53.1570377<class 'float'>	56.470662<class 'float'>	3.00600004196167<class 'float'>	40.916419982910156<class 'float'>	1.24<class 'float'>	-4.28<class 'str'>	257.52<class 'float'>	b'Mission: 2 WP\x00\x00\x00\x00\x00\x00\x00\x00\x00\x00\x00\x00\x00\x00\x00\x00\x00\x00\x00\x00\x00\x00\x00\x00\x00\x00\x00\x00\x00\x00\x00\x00\x00\x00\x00\x00\x00\x00\x00\x00\x00\x00\x00\x00\x00\x00\x00\x00\x00\x00\x00'<class 'str'>
126446514<class 'int'>	53.157008999999995<class 'float'>	56.470657599999996<class 'float'>	3.1100001335144043<class 'float'>	41.94215393066406<class 'float'>	1.32<class 'float'>	-4.61<class 'str'>	257.6<class 'float'>	b'Mission: 2 WP\x00\x00\x00\x00\x00\x00\x00\x00\x00\x00\x00\x00\x00\x00\x00\x00\x00\x00\x00\x00\x00\x00\x00\x00\x00\x00\x00\x00\x00\x00\x00\x00\x00\x00\x00\x00\x00\x00\x00\x00\x00\x00\x00\x00\x00\x00\x00\x00\x00\x00\x00'<class 'str'>
127051471<class 'int'>	53.1569801<class 'float'>	56.470653299999995<class 'float'>	3.0810000896453857<class 'float'>	42.91420364379883<class 'float'>	1.75<class 'float'>	-4.38<class 'str'>	257.61<class 'float'>	b'Mission: 2 WP\x00\x00\x00\x00\x00\x00\x00\x00\x00\x00\x00\x00\x00\x00\x00\x00\x00\x00\x00\x00\x00\x00\x00\x00\x00\x00\x00\x00\x00\x00\x00\x00\x00\x00\x00\x00\x00\x00\x00\x00\x00\x00\x00\x00\x00\x00\x00\x00\x00\x00\x00'<class 'str'>
127640567<class 'int'>	53.1569515<class 'float'>	56.470648999999995<class 'float'>	3.082000255584717<class 'float'>	43.95689392089844<class 'float'>	0.91<class 'float'>	-4.54<class 'str'>	257.34000000000003<class 'float'>	b'Mission: 2 WP\x00\x00\x00\x00\x00\x00\x00\x00\x00\x00\x00\x00\x00\x00\x00\x00\x00\x00\x00\x00\x00\x00\x00\x00\x00\x00\x00\x00\x00\x00\x00\x00\x00\x00\x00\x00\x00\x00\x00\x00\x00\x00\x00\x00\x00\x00\x00\x00\x00\x00\x00'<class 'str'>
128043182<class 'int'>	53.1569328<class 'float'>	56.4706464<class 'float'>	2.939000129699707<class 'float'>	45.50821304321289<class 'float'>	0.37<class 'float'>	-4.12<class 'str'>	257.0<class 'float'>	b'Mission: 2 WP\x00\x00\x00\x00\x00\x00\x00\x00\x00\x00\x00\x00\x00\x00\x00\x00\x00\x00\x00\x00\x00\x00\x00\x00\x00\x00\x00\x00\x00\x00\x00\x00\x00\x00\x00\x00\x00\x00\x00\x00\x00\x00\x00\x00\x00\x00\x00\x00\x00\x00\x00'<class 'str'>
128647997<class 'int'>	53.156904399999995<class 'float'>	56.470642299999994<class 'float'>	3.130000114440918<class 'float'>	46.28528594970703<class 'float'>	0.15<class 'float'>	-4.83<class 'str'>	256.68<class 'float'>	b'Mission: 2 WP\x00\x00\x00\x00\x00\x00\x00\x00\x00\x00\x00\x00\x00\x00\x00\x00\x00\x00\x00\x00\x00\x00\x00\x00\x00\x00\x00\x00\x00\x00\x00\x00\x00\x00\x00\x00\x00\x00\x00\x00\x00\x00\x00\x00\x00\x00\x00\x00\x00\x00\x00'<class 'str'>
129253924<class 'int'>	53.1568755<class 'float'>	56.4706383<class 'float'>	2.9720001220703125<class 'float'>	47.870513916015625<class 'float'>	0.18<class 'float'>	-4.8<class 'str'>	256.41<class 'float'>	b'Mission: 2 WP\x00\x00\x00\x00\x00\x00\x00\x00\x00\x00\x00\x00\x00\x00\x00\x00\x00\x00\x00\x00\x00\x00\x00\x00\x00\x00\x00\x00\x00\x00\x00\x00\x00\x00\x00\x00\x00\x00\x00\x00\x00\x00\x00\x00\x00\x00\x00\x00\x00\x00\x00'<class 'str'>
129834481<class 'int'>	53.156845999999994<class 'float'>	56.470633899999996<class 'float'>	3.0930001735687256<class 'float'>	48.565643310546875<class 'float'>	0.03<class 'float'>	-4.82<class 'str'>	256.04<class 'float'>	b'Mission: 2 WP\x00\x00\x00\x00\x00\x00\x00\x00\x00\x00\x00\x00\x00\x00\x00\x00\x00\x00\x00\x00\x00\x00\x00\x00\x00\x00\x00\x00\x00\x00\x00\x00\x00\x00\x00\x00\x00\x00\x00\x00\x00\x00\x00\x00\x00\x00\x00\x00\x00\x00\x00'<class 'str'>
130437364<class 'int'>	53.1568161<class 'float'>	56.4706292<class 'float'>	3.0380001068115234<class 'float'>	49.88242721557617<class 'float'>	0.88<class 'float'>	-4.79<class 'str'>	255.95000000000002<class 'float'>	b'Mission: 2 WP\x00\x00\x00\x00\x00\x00\x00\x00\x00\x00\x00\x00\x00\x00\x00\x00\x00\x00\x00\x00\x00\x00\x00\x00\x00\x00\x00\x00\x00\x00\x00\x00\x00\x00\x00\x00\x00\x00\x00\x00\x00\x00\x00\x00\x00\x00\x00\x00\x00\x00\x00'<class 'str'>
130851526<class 'int'>	53.1567965<class 'float'>	56.4706261<class 'float'>	3.123000144958496<class 'float'>	50.65950012207031<class 'float'>	1.19<class 'float'>	-4.91<class 'str'>	255.93<class 'float'>	b'Mission: 2 WP\x00\x00\x00\x00\x00\x00\x00\x00\x00\x00\x00\x00\x00\x00\x00\x00\x00\x00\x00\x00\x00\x00\x00\x00\x00\x00\x00\x00\x00\x00\x00\x00\x00\x00\x00\x00\x00\x00\x00\x00\x00\x00\x00\x00\x00\x00\x00\x00\x00\x00\x00'<class 'str'>
131455864<class 'int'>	53.1567668<class 'float'>	56.4706215<class 'float'>	3.114000082015991<class 'float'>	51.88303756713867<class 'float'>	1.48<class 'float'>	-4.59<class 'str'>	256.16<class 'float'>	b'Mission: 2 WP\x00\x00\x00\x00\x00\x00\x00\x00\x00\x00\x00\x00\x00\x00\x00\x00\x00\x00\x00\x00\x00\x00\x00\x00\x00\x00\x00\x00\x00\x00\x00\x00\x00\x00\x00\x00\x00\x00\x00\x00\x00\x00\x00\x00\x00\x00\x00\x00\x00\x00\x00'<class 'str'>
132040973<class 'int'>	53.156737899999996<class 'float'>	56.4706171<class 'float'>	3.005000114440918<class 'float'>	52.79009246826172<class 'float'>	1.08<class 'float'>	-4.23<class 'str'>	256.18<class 'float'>	b'Mission: 2 WP\x00\x00\x00\x00\x00\x00\x00\x00\x00\x00\x00\x00\x00\x00\x00\x00\x00\x00\x00\x00\x00\x00\x00\x00\x00\x00\x00\x00\x00\x00\x00\x00\x00\x00\x00\x00\x00\x00\x00\x00\x00\x00\x00\x00\x00\x00\x00\x00\x00\x00\x00'<class 'str'>
132645148<class 'int'>	53.1567089<class 'float'>	56.470612499999994<class 'float'>	3.182000160217285<class 'float'>	54.23120880126953<class 'float'>	0.71<class 'float'>	-4.0600000000000005<class 'str'>	256.21<class 'float'>	b'Mission: 2 WP\x00\x00\x00\x00\x00\x00\x00\x00\x00\x00\x00\x00\x00\x00\x00\x00\x00\x00\x00\x00\x00\x00\x00\x00\x00\x00\x00\x00\x00\x00\x00\x00\x00\x00\x00\x00\x00\x00\x00\x00\x00\x00\x00\x00\x00\x00\x00\x00\x00\x00\x00'<class 'str'>
133043430<class 'int'>	53.1566902<class 'float'>	56.470609499999995<class 'float'>	3.0950000286102295<class 'float'>	55.25129318237305<class 'float'>	1.06<class 'float'>	-3.9<class 'str'>	256.16<class 'float'>	b'Mission: 2 WP\x00\x00\x00\x00\x00\x00\x00\x00\x00\x00\x00\x00\x00\x00\x00\x00\x00\x00\x00\x00\x00\x00\x00\x00\x00\x00\x00\x00\x00\x00\x00\x00\x00\x00\x00\x00\x00\x00\x00\x00\x00\x00\x00\x00\x00\x00\x00\x00\x00\x00\x00'<class 'str'>
133665517<class 'int'>	53.1566615<class 'float'>	56.4706045<class 'float'>	2.997000217437744<class 'float'>	56.260074615478516<class 'float'>	2.15<class 'float'>	-4.14<class 'str'>	256.26<class 'float'>	b'Mission: 2 WP\x00\x00\x00\x00\x00\x00\x00\x00\x00\x00\x00\x00\x00\x00\x00\x00\x00\x00\x00\x00\x00\x00\x00\x00\x00\x00\x00\x00\x00\x00\x00\x00\x00\x00\x00\x00\x00\x00\x00\x00\x00\x00\x00\x00\x00\x00\x00\x00\x00\x00\x00'<class 'str'>
134233974<class 'int'>	53.1566335<class 'float'>	56.470599199999995<class 'float'>	2.9900002479553223<class 'float'>	57.6785888671875<class 'float'>	1.85<class 'float'>	-3.86<class 'str'>	256.64<class 'float'>	b'Mission: 2 WP\x00\x00\x00\x00\x00\x00\x00\x00\x00\x00\x00\x00\x00\x00\x00\x00\x00\x00\x00\x00\x00\x00\x00\x00\x00\x00\x00\x00\x00\x00\x00\x00\x00\x00\x00\x00\x00\x00\x00\x00\x00\x00\x00\x00\x00\x00\x00\x00\x00\x00\x00'<class 'str'>
134842477<class 'int'>	53.1566057<class 'float'>	56.4705941<class 'float'>	3.077000141143799<class 'float'>	58.65628433227539<class 'float'>	2.77<class 'float'>	-4.13<class 'str'>	257.3<class 'float'>	b'Mission: 2 WP\x00\x00\x00\x00\x00\x00\x00\x00\x00\x00\x00\x00\x00\x00\x00\x00\x00\x00\x00\x00\x00\x00\x00\x00\x00\x00\x00\x00\x00\x00\x00\x00\x00\x00\x00\x00\x00\x00\x00\x00\x00\x00\x00\x00\x00\x00\x00\x00\x00\x00\x00'<class 'str'>
135449155<class 'int'>	53.1565776<class 'float'>	56.470588799999994<class 'float'>	3.002000093460083<class 'float'>	59.87982177734375<class 'float'>	3.13<class 'float'>	-4.04<class 'str'>	258.16<class 'float'>	b'Mission: 2 WP\x00\x00\x00\x00\x00\x00\x00\x00\x00\x00\x00\x00\x00\x00\x00\x00\x00\x00\x00\x00\x00\x00\x00\x00\x00\x00\x00\x00\x00\x00\x00\x00\x00\x00\x00\x00\x00\x00\x00\x00\x00\x00\x00\x00\x00\x00\x00\x00\x00\x00\x00'<class 'str'>
135844474<class 'int'>	53.156558999999994<class 'float'>	56.4705855<class 'float'>	3.0280001163482666<class 'float'>	60.9733772277832<class 'float'>	2.7<class 'float'>	-3.97<class 'str'>	258.58<class 'float'>	b'New mission\x00\x00\x00\x00\x00\x00\x00\x00\x00\x00\x00\x00\x00\x00\x00\x00\x00\x00\x00\x00\x00\x00\x00\x00\x00\x00\x00\x00\x00\x00\x00\x00\x00\x00\x00\x00\x00\x00\x00\x00\x00\x00\x00\x00\x00\x00\x00\x00\x00\x00\x00\x00\x00'<class 'str'>
136447937<class 'int'>	53.1565319<class 'float'>	56.470580899999995<class 'float'>	2.9010000228881836<class 'float'>	62.14604949951172<class 'float'>	2.42<class 'float'>	-3.75<class 'str'>	258.87<class 'float'>	b'New mission\x00\x00\x00\x00\x00\x00\x00\x00\x00\x00\x00\x00\x00\x00\x00\x00\x00\x00\x00\x00\x00\x00\x00\x00\x00\x00\x00\x00\x00\x00\x00\x00\x00\x00\x00\x00\x00\x00\x00\x00\x00\x00\x00\x00\x00\x00\x00\x00\x00\x00\x00\x00\x00'<class 'str'>
137049876<class 'int'>	53.1565035<class 'float'>	56.4705763<class 'float'>	3.075000047683716<class 'float'>	63.132225036621094<class 'float'>	1.85<class 'float'>	-4.01<class 'str'>	258.76<class 'float'>	b'New mission\x00\x00\x00\x00\x00\x00\x00\x00\x00\x00\x00\x00\x00\x00\x00\x00\x00\x00\x00\x00\x00\x00\x00\x00\x00\x00\x00\x00\x00\x00\x00\x00\x00\x00\x00\x00\x00\x00\x00\x00\x00\x00\x00\x00\x00\x00\x00\x00\x00\x00\x00\x00\x00'<class 'str'>
137447610<class 'int'>	53.1564845<class 'float'>	56.4705732<class 'float'>	2.955000162124634<class 'float'>	64.18339538574219<class 'float'>	0.9400000000000001<class 'float'>	-3.5<class 'str'>	258.82<class 'float'>	b'New mission\x00\x00\x00\x00\x00\x00\x00\x00\x00\x00\x00\x00\x00\x00\x00\x00\x00\x00\x00\x00\x00\x00\x00\x00\x00\x00\x00\x00\x00\x00\x00\x00\x00\x00\x00\x00\x00\x00\x00\x00\x00\x00\x00\x00\x00\x00\x00\x00\x00\x00\x00\x00\x00'<class 'str'>
138038201<class 'int'>	53.1564571<class 'float'>	56.470568799999995<class 'float'>	2.939000129699707<class 'float'>	65.59907531738281<class 'float'>	1.26<class 'float'>	-3.94<class 'str'>	258.97<class 'float'>	b'New mission\x00\x00\x00\x00\x00\x00\x00\x00\x00\x00\x00\x00\x00\x00\x00\x00\x00\x00\x00\x00\x00\x00\x00\x00\x00\x00\x00\x00\x00\x00\x00\x00\x00\x00\x00\x00\x00\x00\x00\x00\x00\x00\x00\x00\x00\x00\x00\x00\x00\x00\x00\x00\x00'<class 'str'>
138641394<class 'int'>	53.156429599999996<class 'float'>	56.4705644<class 'float'>	2.872000217437744<class 'float'>	66.42418670654297<class 'float'>	0.4<class 'float'>	-4.04<class 'str'>	259.15<class 'float'>	b'New mission\x00\x00\x00\x00\x00\x00\x00\x00\x00\x00\x00\x00\x00\x00\x00\x00\x00\x00\x00\x00\x00\x00\x00\x00\x00\x00\x00\x00\x00\x00\x00\x00\x00\x00\x00\x00\x00\x00\x00\x00\x00\x00\x00\x00\x00\x00\x00\x00\x00\x00\x00\x00\x00'<class 'str'>
139245750<class 'int'>	53.1564031<class 'float'>	56.4705599<class 'float'>	2.7820000648498535<class 'float'>	67.74097442626953<class 'float'>	0.9400000000000001<class 'float'>	-4.78<class 'str'>	259.41<class 'float'>	b'New mission\x00\x00\x00\x00\x00\x00\x00\x00\x00\x00\x00\x00\x00\x00\x00\x00\x00\x00\x00\x00\x00\x00\x00\x00\x00\x00\x00\x00\x00\x00\x00\x00\x00\x00\x00\x00\x00\x00\x00\x00\x00\x00\x00\x00\x00\x00\x00\x00\x00\x00\x00\x00\x00'<class 'str'>
139850855<class 'int'>	53.1563768<class 'float'>	56.470555399999995<class 'float'>	2.7910001277923584<class 'float'>	69.09732055664062<class 'float'>	1.08<class 'float'>	-4.92<class 'str'>	259.78000000000003<class 'float'>	b'New mission\x00\x00\x00\x00\x00\x00\x00\x00\x00\x00\x00\x00\x00\x00\x00\x00\x00\x00\x00\x00\x00\x00\x00\x00\x00\x00\x00\x00\x00\x00\x00\x00\x00\x00\x00\x00\x00\x00\x00\x00\x00\x00\x00\x00\x00\x00\x00\x00\x00\x00\x00\x00\x00'<class 'str'>
140246572<class 'int'>	53.1563588<class 'float'>	56.4705526<class 'float'>	2.8610000610351562<class 'float'>	69.84330749511719<class 'float'>	1.6400000000000001<class 'float'>	-5.68<class 'str'>	260.15<class 'float'>	b'New mission\x00\x00\x00\x00\x00\x00\x00\x00\x00\x00\x00\x00\x00\x00\x00\x00\x00\x00\x00\x00\x00\x00\x00\x00\x00\x00\x00\x00\x00\x00\x00\x00\x00\x00\x00\x00\x00\x00\x00\x00\x00\x00\x00\x00\x00\x00\x00\x00\x00\x00\x00\x00\x00'<class 'str'>
140868438<class 'int'>	53.1563314<class 'float'>	56.470548099999995<class 'float'>	2.991000175476074<class 'float'>	71.01598358154297<class 'float'>	2.13<class 'float'>	-5.66<class 'str'>	260.38<class 'float'>	b'New mission\x00\x00\x00\x00\x00\x00\x00\x00\x00\x00\x00\x00\x00\x00\x00\x00\x00\x00\x00\x00\x00\x00\x00\x00\x00\x00\x00\x00\x00\x00\x00\x00\x00\x00\x00\x00\x00\x00\x00\x00\x00\x00\x00\x00\x00\x00\x00\x00\x00\x00\x00\x00\x00'<class 'str'>
141455922<class 'int'>	53.1563036<class 'float'>	56.470543899999996<class 'float'>	3.009000062942505<class 'float'>	72.58142852783203<class 'float'>	1.78<class 'float'>	-5.45<class 'str'>	260.36<class 'float'>	b'New mission\x00\x00\x00\x00\x00\x00\x00\x00\x00\x00\x00\x00\x00\x00\x00\x00\x00\x00\x00\x00\x00\x00\x00\x00\x00\x00\x00\x00\x00\x00\x00\x00\x00\x00\x00\x00\x00\x00\x00\x00\x00\x00\x00\x00\x00\x00\x00\x00\x00\x00\x00\x00\x00'<class 'str'>
142039472<class 'int'>	53.156275099999995<class 'float'>	56.4705398<class 'float'>	3.055000066757202<class 'float'>	72.79618835449219<class 'float'>	1.6500000000000001<class 'float'>	-5.79<class 'str'>	260.24<class 'float'>	b'New mission\x00\x00\x00\x00\x00\x00\x00\x00\x00\x00\x00\x00\x00\x00\x00\x00\x00\x00\x00\x00\x00\x00\x00\x00\x00\x00\x00\x00\x00\x00\x00\x00\x00\x00\x00\x00\x00\x00\x00\x00\x00\x00\x00\x00\x00\x00\x00\x00\x00\x00\x00\x00\x00'<class 'str'>
142436166<class 'int'>	53.1562558<class 'float'>	56.470537<class 'float'>	3.1500000953674316<class 'float'>	74.35315704345703<class 'float'>	1.69<class 'float'>	-5.14<class 'str'>	259.84000000000003<class 'float'>	b'New mission\x00\x00\x00\x00\x00\x00\x00\x00\x00\x00\x00\x00\x00\x00\x00\x00\x00\x00\x00\x00\x00\x00\x00\x00\x00\x00\x00\x00\x00\x00\x00\x00\x00\x00\x00\x00\x00\x00\x00\x00\x00\x00\x00\x00\x00\x00\x00\x00\x00\x00\x00\x00\x00'<class 'str'>
142837936<class 'int'>	53.1562361<class 'float'>	56.4705343<class 'float'>	3.1130001544952393<class 'float'>	75.3647689819336<class 'float'>	1.1300000000000001<class 'float'>	-4.96<class 'str'>	259.31<class 'float'>	b'New mission\x00\x00\x00\x00\x00\x00\x00\x00\x00\x00\x00\x00\x00\x00\x00\x00\x00\x00\x00\x00\x00\x00\x00\x00\x00\x00\x00\x00\x00\x00\x00\x00\x00\x00\x00\x00\x00\x00\x00\x00\x00\x00\x00\x00\x00\x00\x00\x00\x00\x00\x00\x00\x00'<class 'str'>
143445475<class 'int'>	53.1562062<class 'float'>	56.47053<class 'float'>	3.116000175476074<class 'float'>	76.6419906616211<class 'float'>	1.37<class 'float'>	-4.79<class 'str'>	259.05<class 'float'>	b'New mission\x00\x00\x00\x00\x00\x00\x00\x00\x00\x00\x00\x00\x00\x00\x00\x00\x00\x00\x00\x00\x00\x00\x00\x00\x00\x00\x00\x00\x00\x00\x00\x00\x00\x00\x00\x00\x00\x00\x00\x00\x00\x00\x00\x00\x00\x00\x00\x00\x00\x00\x00\x00\x00'<class 'str'>
144052131<class 'int'>	53.1561765<class 'float'>	56.470525599999995<class 'float'>	3.1600000858306885<class 'float'>	77.71858978271484<class 'float'>	1.27<class 'float'>	-4.75<class 'str'>	258.71<class 'float'>	b'New mission\x00\x00\x00\x00\x00\x00\x00\x00\x00\x00\x00\x00\x00\x00\x00\x00\x00\x00\x00\x00\x00\x00\x00\x00\x00\x00\x00\x00\x00\x00\x00\x00\x00\x00\x00\x00\x00\x00\x00\x00\x00\x00\x00\x00\x00\x00\x00\x00\x00\x00\x00\x00\x00'<class 'str'>
144656466<class 'int'>	53.156147<class 'float'>	56.4705211<class 'float'>	3.188000202178955<class 'float'>	78.61717224121094<class 'float'>	1.37<class 'float'>	-4.3500000000000005<class 'str'>	258.63<class 'float'>	b'New mission\x00\x00\x00\x00\x00\x00\x00\x00\x00\x00\x00\x00\x00\x00\x00\x00\x00\x00\x00\x00\x00\x00\x00\x00\x00\x00\x00\x00\x00\x00\x00\x00\x00\x00\x00\x00\x00\x00\x00\x00\x00\x00\x00\x00\x00\x00\x00\x00\x00\x00\x00\x00\x00'<class 'str'>
145241684<class 'int'>	53.1561178<class 'float'>	56.4705162<class 'float'>	3.062000036239624<class 'float'>	79.7022476196289<class 'float'>	2.22<class 'float'>	-4.45<class 'str'>	258.8<class 'float'>	b'New mission\x00\x00\x00\x00\x00\x00\x00\x00\x00\x00\x00\x00\x00\x00\x00\x00\x00\x00\x00\x00\x00\x00\x00\x00\x00\x00\x00\x00\x00\x00\x00\x00\x00\x00\x00\x00\x00\x00\x00\x00\x00\x00\x00\x00\x00\x00\x00\x00\x00\x00\x00\x00\x00'<class 'str'>
145664128<class 'int'>	53.1560986<class 'float'>	56.470512799999995<class 'float'>	3.065000057220459<class 'float'>	81.14618682861328<class 'float'>	2.79<class 'float'>	-4.9<class 'str'>	259.1<class 'float'>	b'New mission\x00\x00\x00\x00\x00\x00\x00\x00\x00\x00\x00\x00\x00\x00\x00\x00\x00\x00\x00\x00\x00\x00\x00\x00\x00\x00\x00\x00\x00\x00\x00\x00\x00\x00\x00\x00\x00\x00\x00\x00\x00\x00\x00\x00\x00\x00\x00\x00\x00\x00\x00\x00\x00'<class 'str'>
146245589<class 'int'>	53.1560705<class 'float'>	56.4705077<class 'float'>	3.05400013923645<class 'float'>	81.97129821777344<class 'float'>	2.71<class 'float'>	-4.75<class 'str'>	259.51<class 'float'>	b'New mission\x00\x00\x00\x00\x00\x00\x00\x00\x00\x00\x00\x00\x00\x00\x00\x00\x00\x00\x00\x00\x00\x00\x00\x00\x00\x00\x00\x00\x00\x00\x00\x00\x00\x00\x00\x00\x00\x00\x00\x00\x00\x00\x00\x00\x00\x00\x00\x00\x00\x00\x00\x00\x00'<class 'str'>
146853878<class 'int'>	53.156043499999996<class 'float'>	56.4705033<class 'float'>	2.9030001163482666<class 'float'>	83.27677917480469<class 'float'>	2.04<class 'float'>	-4.3500000000000005<class 'str'>	259.88<class 'float'>	b'New mission\x00\x00\x00\x00\x00\x00\x00\x00\x00\x00\x00\x00\x00\x00\x00\x00\x00\x00\x00\x00\x00\x00\x00\x00\x00\x00\x00\x00\x00\x00\x00\x00\x00\x00\x00\x00\x00\x00\x00\x00\x00\x00\x00\x00\x00\x00\x00\x00\x00\x00\x00\x00\x00'<class 'str'>
147438930<class 'int'>	53.1560159<class 'float'>	56.4704987<class 'float'>	2.957000255584717<class 'float'>	84.36185455322266<class 'float'>	2.14<class 'float'>	-5.36<class 'str'>	260.09000000000003<class 'float'>	b'New mission\x00\x00\x00\x00\x00\x00\x00\x00\x00\x00\x00\x00\x00\x00\x00\x00\x00\x00\x00\x00\x00\x00\x00\x00\x00\x00\x00\x00\x00\x00\x00\x00\x00\x00\x00\x00\x00\x00\x00\x00\x00\x00\x00\x00\x00\x00\x00\x00\x00\x00\x00\x00\x00'<class 'str'>
148045865<class 'int'>	53.1559889<class 'float'>	56.4704943<class 'float'>	2.9760000705718994<class 'float'>	85.5712661743164<class 'float'>	2.71<class 'float'>	-5.59<class 'str'>	260.27<class 'float'>	b'New mission\x00\x00\x00\x00\x00\x00\x00\x00\x00\x00\x00\x00\x00\x00\x00\x00\x00\x00\x00\x00\x00\x00\x00\x00\x00\x00\x00\x00\x00\x00\x00\x00\x00\x00\x00\x00\x00\x00\x00\x00\x00\x00\x00\x00\x00\x00\x00\x00\x00\x00\x00\x00\x00'<class 'str'>
148438579<class 'int'>	53.1559703<class 'float'>	56.4704911<class 'float'>	2.9220001697540283<class 'float'>	86.63938903808594<class 'float'>	2.25<class 'float'>	-5.79<class 'str'>	260.52<class 'float'>	b'New mission\x00\x00\x00\x00\x00\x00\x00\x00\x00\x00\x00\x00\x00\x00\x00\x00\x00\x00\x00\x00\x00\x00\x00\x00\x00\x00\x00\x00\x00\x00\x00\x00\x00\x00\x00\x00\x00\x00\x00\x00\x00\x00\x00\x00\x00\x00\x00\x00\x00\x00\x00\x00\x00'<class 'str'>
149042854<class 'int'>	53.1559424<class 'float'>	56.4704864<class 'float'>	2.9900002479553223<class 'float'>	87.24126434326172<class 'float'>	2.13<class 'float'>	-5.53<class 'str'>	260.69<class 'float'>	b'New mission\x00\x00\x00\x00\x00\x00\x00\x00\x00\x00\x00\x00\x00\x00\x00\x00\x00\x00\x00\x00\x00\x00\x00\x00\x00\x00\x00\x00\x00\x00\x00\x00\x00\x00\x00\x00\x00\x00\x00\x00\x00\x00\x00\x00\x00\x00\x00\x00\x00\x00\x00\x00\x00'<class 'str'>
149666510<class 'int'>	53.155914499999994<class 'float'>	56.4704814<class 'float'>	2.957000255584717<class 'float'>	89.31816864013672<class 'float'>	2.7<class 'float'>	-5.7700000000000005<class 'str'>	261.02<class 'float'>	b'New mission\x00\x00\x00\x00\x00\x00\x00\x00\x00\x00\x00\x00\x00\x00\x00\x00\x00\x00\x00\x00\x00\x00\x00\x00\x00\x00\x00\x00\x00\x00\x00\x00\x00\x00\x00\x00\x00\x00\x00\x00\x00\x00\x00\x00\x00\x00\x00\x00\x00\x00\x00\x00\x00'<class 'str'>
150042371<class 'int'>	53.155896299999995<class 'float'>	56.470478<class 'float'>	2.9580001831054688<class 'float'>	90.27608489990234<class 'float'>	2.54<class 'float'>	-5.51<class 'str'>	261.42<class 'float'>	b'New mission\x00\x00\x00\x00\x00\x00\x00\x00\x00\x00\x00\x00\x00\x00\x00\x00\x00\x00\x00\x00\x00\x00\x00\x00\x00\x00\x00\x00\x00\x00\x00\x00\x00\x00\x00\x00\x00\x00\x00\x00\x00\x00\x00\x00\x00\x00\x00\x00\x00\x00\x00\x00\x00'<class 'str'>
150653880<class 'int'>	53.1558699<class 'float'>	56.4704726<class 'float'>	2.8330001831054688<class 'float'>	90.98534393310547<class 'float'>	3.24<class 'float'>	-5.68<class 'str'>	262.12<class 'float'>	b'New mission\x00\x00\x00\x00\x00\x00\x00\x00\x00\x00\x00\x00\x00\x00\x00\x00\x00\x00\x00\x00\x00\x00\x00\x00\x00\x00\x00\x00\x00\x00\x00\x00\x00\x00\x00\x00\x00\x00\x00\x00\x00\x00\x00\x00\x00\x00\x00\x00\x00\x00\x00\x00\x00'<class 'str'>
151256561<class 'int'>	53.1558433<class 'float'>	56.470467199999995<class 'float'>	2.8940000534057617<class 'float'>	91.79914855957031<class 'float'>	4.5200000000000005<class 'float'>	-6.48<class 'str'>	263.24<class 'float'>	b'New mission\x00\x00\x00\x00\x00\x00\x00\x00\x00\x00\x00\x00\x00\x00\x00\x00\x00\x00\x00\x00\x00\x00\x00\x00\x00\x00\x00\x00\x00\x00\x00\x00\x00\x00\x00\x00\x00\x00\x00\x00\x00\x00\x00\x00\x00\x00\x00\x00\x00\x00\x00\x00\x00'<class 'str'>
151653497<class 'int'>	53.1558253<class 'float'>	56.470463699999996<class 'float'>	2.9750001430511475<class 'float'>	93.05377197265625<class 'float'>	3.73<class 'float'>	-6.19<class 'str'>	263.82<class 'float'>	b'New mission\x00\x00\x00\x00\x00\x00\x00\x00\x00\x00\x00\x00\x00\x00\x00\x00\x00\x00\x00\x00\x00\x00\x00\x00\x00\x00\x00\x00\x00\x00\x00\x00\x00\x00\x00\x00\x00\x00\x00\x00\x00\x00\x00\x00\x00\x00\x00\x00\x00\x00\x00\x00\x00'<class 'str'>
152259089<class 'int'>	53.1557977<class 'float'>	56.4704591<class 'float'>	2.9800002574920654<class 'float'>	94.28861236572266<class 'float'>	3.99<class 'float'>	-5.93<class 'str'>	264.44<class 'float'>	b'New mission\x00\x00\x00\x00\x00\x00\x00\x00\x00\x00\x00\x00\x00\x00\x00\x00\x00\x00\x00\x00\x00\x00\x00\x00\x00\x00\x00\x00\x00\x00\x00\x00\x00\x00\x00\x00\x00\x00\x00\x00\x00\x00\x00\x00\x00\x00\x00\x00\x00\x00\x00\x00\x00'<class 'str'>
152844877<class 'int'>	53.155769299999996<class 'float'>	56.470454999999994<class 'float'>	2.9740002155303955<class 'float'>	95.3341293334961<class 'float'>	2.8000000000000003<class 'float'>	-6.19<class 'str'>	264.3<class 'float'>	b'New mission\x00\x00\x00\x00\x00\x00\x00\x00\x00\x00\x00\x00\x00\x00\x00\x00\x00\x00\x00\x00\x00\x00\x00\x00\x00\x00\x00\x00\x00\x00\x00\x00\x00\x00\x00\x00\x00\x00\x00\x00\x00\x00\x00\x00\x00\x00\x00\x00\x00\x00\x00\x00\x00'<class 'str'>
153448492<class 'int'>	53.155741<class 'float'>	56.470451<class 'float'>	2.9070000648498535<class 'float'>	96.2835693359375<class 'float'>	2.89<class 'float'>	-6.46<class 'str'>	263.71<class 'float'>	b'New mission\x00\x00\x00\x00\x00\x00\x00\x00\x00\x00\x00\x00\x00\x00\x00\x00\x00\x00\x00\x00\x00\x00\x00\x00\x00\x00\x00\x00\x00\x00\x00\x00\x00\x00\x00\x00\x00\x00\x00\x00\x00\x00\x00\x00\x00\x00\x00\x00\x00\x00\x00\x00\x00'<class 'str'>
153844932<class 'int'>	53.155721799999995<class 'float'>	56.470448299999994<class 'float'>	3.0850000381469727<class 'float'>	97.30082702636719<class 'float'>	2.92<class 'float'>	-6.67<class 'str'>	263.2<class 'float'>	b'New mission\x00\x00\x00\x00\x00\x00\x00\x00\x00\x00\x00\x00\x00\x00\x00\x00\x00\x00\x00\x00\x00\x00\x00\x00\x00\x00\x00\x00\x00\x00\x00\x00\x00\x00\x00\x00\x00\x00\x00\x00\x00\x00\x00\x00\x00\x00\x00\x00\x00\x00\x00\x00\x00'<class 'str'>
154449125<class 'int'>	53.155693<class 'float'>	56.4704446<class 'float'>	3.1540000438690186<class 'float'>	98.41133117675781<class 'float'>	3.2800000000000002<class 'float'>	-6.6000000000000005<class 'str'>	262.61<class 'float'>	b'Mission: 3 WP\x00\x00\x00\x00\x00\x00\x00\x00\x00\x00\x00\x00\x00\x00\x00\x00\x00\x00\x00\x00\x00\x00\x00\x00\x00\x00\x00\x00\x00\x00\x00\x00\x00\x00\x00\x00\x00\x00\x00\x00\x00\x00\x00\x00\x00\x00\x00\x00\x00\x00\x00'<class 'str'>
155055583<class 'int'>	53.1556636<class 'float'>	56.470440599999996<class 'float'>	2.9600000381469727<class 'float'>	98.59500885009766<class 'float'>	3.2800000000000002<class 'float'>	-1.29<class 'str'>	262.85<class 'float'>	b'Mission: 3 WP\x00\x00\x00\x00\x00\x00\x00\x00\x00\x00\x00\x00\x00\x00\x00\x00\x00\x00\x00\x00\x00\x00\x00\x00\x00\x00\x00\x00\x00\x00\x00\x00\x00\x00\x00\x00\x00\x00\x00\x00\x00\x00\x00\x00\x00\x00\x00\x00\x00\x00\x00'<class 'str'>
155664404<class 'int'>	53.155637299999995<class 'float'>	56.4704376<class 'float'>	2.4060001373291016<class 'float'>	99.32686614990234<class 'float'>	2.11<class 'float'>	2.17<class 'float'>	263.16<class 'float'>	b'Mission: 3 WP\x00\x00\x00\x00\x00\x00\x00\x00\x00\x00\x00\x00\x00\x00\x00\x00\x00\x00\x00\x00\x00\x00\x00\x00\x00\x00\x00\x00\x00\x00\x00\x00\x00\x00\x00\x00\x00\x00\x00\x00\x00\x00\x00\x00\x00\x00\x00\x00\x00\x00\x00'<class 'str'>
156041408<class 'int'>	53.1556232<class 'float'>	56.4704361<class 'float'>	1.9890000820159912<class 'float'>	99.19406127929688<class 'float'>	0.96<class 'float'>	5.19<class 'float'>	263.15<class 'float'>	b'Mission: 3 WP\x00\x00\x00\x00\x00\x00\x00\x00\x00\x00\x00\x00\x00\x00\x00\x00\x00\x00\x00\x00\x00\x00\x00\x00\x00\x00\x00\x00\x00\x00\x00\x00\x00\x00\x00\x00\x00\x00\x00\x00\x00\x00\x00\x00\x00\x00\x00\x00\x00\x00\x00'<class 'str'>
156646520<class 'int'>	53.1556086<class 'float'>	56.4704349<class 'float'>	1.0940001010894775<class 'float'>	99.6942138671875<class 'float'>	2.44<class 'float'>	5.51<class 'float'>	263.0<class 'float'>	b'Mission: 4 WP\x00\x00\x00\x00\x00\x00\x00\x00\x00\x00\x00\x00\x00\x00\x00\x00\x00\x00\x00\x00\x00\x00\x00\x00\x00\x00\x00\x00\x00\x00\x00\x00\x00\x00\x00\x00\x00\x00\x00\x00\x00\x00\x00\x00\x00\x00\x00\x00\x00\x00\x00'<class 'str'>
157252889<class 'int'>	53.1556018<class 'float'>	56.4704347<class 'float'>	0.46800002455711365<class 'float'>	100.11524200439453<class 'float'>	0.53<class 'float'>	-2.14<class 'str'>	262.92<class 'float'>	b'Mission: 4 WP\x00\x00\x00\x00\x00\x00\x00\x00\x00\x00\x00\x00\x00\x00\x00\x00\x00\x00\x00\x00\x00\x00\x00\x00\x00\x00\x00\x00\x00\x00\x00\x00\x00\x00\x00\x00\x00\x00\x00\x00\x00\x00\x00\x00\x00\x00\x00\x00\x00\x00\x00'<class 'str'>
157858683<class 'int'>	53.1555976<class 'float'>	56.470434<class 'float'>	0.5010000467300415<class 'float'>	99.9457015991211<class 'float'>	0.32<class 'float'>	-5.29<class 'str'>	262.85<class 'float'>	b'Mission: 4 WP\x00\x00\x00\x00\x00\x00\x00\x00\x00\x00\x00\x00\x00\x00\x00\x00\x00\x00\x00\x00\x00\x00\x00\x00\x00\x00\x00\x00\x00\x00\x00\x00\x00\x00\x00\x00\x00\x00\x00\x00\x00\x00\x00\x00\x00\x00\x00\x00\x00\x00\x00'<class 'str'>
158252512<class 'int'>	53.1555938<class 'float'>	56.4704323<class 'float'>	0.8340000510215759<class 'float'>	100.11807250976562<class 'float'>	1.07<class 'float'>	-7.69<class 'str'>	262.83<class 'float'>	b'Mission: 4 WP\x00\x00\x00\x00\x00\x00\x00\x00\x00\x00\x00\x00\x00\x00\x00\x00\x00\x00\x00\x00\x00\x00\x00\x00\x00\x00\x00\x00\x00\x00\x00\x00\x00\x00\x00\x00\x00\x00\x00\x00\x00\x00\x00\x00\x00\x00\x00\x00\x00\x00\x00'<class 'str'>
158835518<class 'int'>	53.155585699999996<class 'float'>	56.4704286<class 'float'>	1.2260000705718994<class 'float'>	100.07568359375<class 'float'>	0.8300000000000001<class 'float'>	-8.0<class 'str'>	262.93<class 'float'>	b'Mission: 4 WP\x00\x00\x00\x00\x00\x00\x00\x00\x00\x00\x00\x00\x00\x00\x00\x00\x00\x00\x00\x00\x00\x00\x00\x00\x00\x00\x00\x00\x00\x00\x00\x00\x00\x00\x00\x00\x00\x00\x00\x00\x00\x00\x00\x00\x00\x00\x00\x00\x00\x00\x00'<class 'str'>
159439374<class 'int'>	53.1555739<class 'float'>	56.470423999999994<class 'float'>	1.6540000438690186<class 'float'>	99.7168197631836<class 'float'>	1.76<class 'float'>	-8.09<class 'str'>	235.98000000000002<class 'float'>	b'Mission: 4 WP\x00\x00\x00\x00\x00\x00\x00\x00\x00\x00\x00\x00\x00\x00\x00\x00\x00\x00\x00\x00\x00\x00\x00\x00\x00\x00\x00\x00\x00\x00\x00\x00\x00\x00\x00\x00\x00\x00\x00\x00\x00\x00\x00\x00\x00\x00\x00\x00\x00\x00\x00'<class 'str'>
160042449<class 'int'>	53.1555585<class 'float'>	56.4704171<class 'float'>	2.322000026702881<class 'float'>	99.70269012451172<class 'float'>	5.55<class 'float'>	-9.01<class 'str'>	239.51<class 'float'>	b'Mission: 4 WP\x00\x00\x00\x00\x00\x00\x00\x00\x00\x00\x00\x00\x00\x00\x00\x00\x00\x00\x00\x00\x00\x00\x00\x00\x00\x00\x00\x00\x00\x00\x00\x00\x00\x00\x00\x00\x00\x00\x00\x00\x00\x00\x00\x00\x00\x00\x00\x00\x00\x00\x00'<class 'str'>
160646013<class 'int'>	53.155538899999996<class 'float'>	56.470408799999994<class 'float'>	2.8950002193450928<class 'float'>	100.50236511230469<class 'float'>	2.19<class 'float'>	-9.19<class 'str'>	239.86<class 'float'>	b'Mission: 4 WP\x00\x00\x00\x00\x00\x00\x00\x00\x00\x00\x00\x00\x00\x00\x00\x00\x00\x00\x00\x00\x00\x00\x00\x00\x00\x00\x00\x00\x00\x00\x00\x00\x00\x00\x00\x00\x00\x00\x00\x00\x00\x00\x00\x00\x00\x00\x00\x00\x00\x00\x00'<class 'str'>
161045331<class 'int'>	53.1555234<class 'float'>	56.4704025<class 'float'>	3.266000270843506<class 'float'>	100.4373779296875<class 'float'>	1.52<class 'float'>	-8.76<class 'str'>	240.35<class 'float'>	b'Mission: 4 WP\x00\x00\x00\x00\x00\x00\x00\x00\x00\x00\x00\x00\x00\x00\x00\x00\x00\x00\x00\x00\x00\x00\x00\x00\x00\x00\x00\x00\x00\x00\x00\x00\x00\x00\x00\x00\x00\x00\x00\x00\x00\x00\x00\x00\x00\x00\x00\x00\x00\x00\x00'<class 'str'>
161669926<class 'int'>	53.1554961<class 'float'>	56.4703915<class 'float'>	3.7870001792907715<class 'float'>	100.13219451904297<class 'float'>	1.19<class 'float'>	-9.620000000000001<class 'str'>	240.81<class 'float'>	b'Mission: 4 WP\x00\x00\x00\x00\x00\x00\x00\x00\x00\x00\x00\x00\x00\x00\x00\x00\x00\x00\x00\x00\x00\x00\x00\x00\x00\x00\x00\x00\x00\x00\x00\x00\x00\x00\x00\x00\x00\x00\x00\x00\x00\x00\x00\x00\x00\x00\x00\x00\x00\x00\x00'<class 'str'>
162252472<class 'int'>	53.1554648<class 'float'>	56.470378999999994<class 'float'>	4.298000335693359<class 'float'>	100.74820709228516<class 'float'>	1.3900000000000001<class 'float'>	-9.71<class 'str'>	240.99<class 'float'>	b'Mission: 4 WP\x00\x00\x00\x00\x00\x00\x00\x00\x00\x00\x00\x00\x00\x00\x00\x00\x00\x00\x00\x00\x00\x00\x00\x00\x00\x00\x00\x00\x00\x00\x00\x00\x00\x00\x00\x00\x00\x00\x00\x00\x00\x00\x00\x00\x00\x00\x00\x00\x00\x00\x00'<class 'str'>
162834343<class 'int'>	53.155429899999994<class 'float'>	56.4703647<class 'float'>	4.869000434875488<class 'float'>	100.48258972167969<class 'float'>	1.24<class 'float'>	-8.950000000000001<class 'str'>	241.41<class 'float'>	b'Mission: 4 WP\x00\x00\x00\x00\x00\x00\x00\x00\x00\x00\x00\x00\x00\x00\x00\x00\x00\x00\x00\x00\x00\x00\x00\x00\x00\x00\x00\x00\x00\x00\x00\x00\x00\x00\x00\x00\x00\x00\x00\x00\x00\x00\x00\x00\x00\x00\x00\x00\x00\x00\x00'<class 'str'>
163252703<class 'int'>	53.1554042<class 'float'>	56.470354099999994<class 'float'>	5.154000282287598<class 'float'>	99.39750671386719<class 'float'>	1.12<class 'float'>	-9.200000000000001<class 'str'>	241.59<class 'float'>	b'Mission: 4 WP\x00\x00\x00\x00\x00\x00\x00\x00\x00\x00\x00\x00\x00\x00\x00\x00\x00\x00\x00\x00\x00\x00\x00\x00\x00\x00\x00\x00\x00\x00\x00\x00\x00\x00\x00\x00\x00\x00\x00\x00\x00\x00\x00\x00\x00\x00\x00\x00\x00\x00\x00'<class 'str'>
163842865<class 'int'>	53.1553633<class 'float'>	56.470337199999996<class 'float'>	5.390000343322754<class 'float'>	100.92340087890625<class 'float'>	1.24<class 'float'>	-8.92<class 'str'>	241.77<class 'float'>	b'Mission: 4 WP\x00\x00\x00\x00\x00\x00\x00\x00\x00\x00\x00\x00\x00\x00\x00\x00\x00\x00\x00\x00\x00\x00\x00\x00\x00\x00\x00\x00\x00\x00\x00\x00\x00\x00\x00\x00\x00\x00\x00\x00\x00\x00\x00\x00\x00\x00\x00\x00\x00\x00\x00'<class 'str'>
164450856<class 'int'>	53.155319899999995<class 'float'>	56.470319399999994<class 'float'>	5.64900016784668<class 'float'>	100.3045654296875<class 'float'>	1.84<class 'float'>	-9.47<class 'str'>	241.95000000000002<class 'float'>	b'Mission: 4 WP\x00\x00\x00\x00\x00\x00\x00\x00\x00\x00\x00\x00\x00\x00\x00\x00\x00\x00\x00\x00\x00\x00\x00\x00\x00\x00\x00\x00\x00\x00\x00\x00\x00\x00\x00\x00\x00\x00\x00\x00\x00\x00\x00\x00\x00\x00\x00\x00\x00\x00\x00'<class 'str'>
165054579<class 'int'>	53.1552746<class 'float'>	56.470301<class 'float'>	5.809000492095947<class 'float'>	100.37520599365234<class 'float'>	2.72<class 'float'>	-8.85<class 'str'>	242.05<class 'float'>	b'Mission: 4 WP\x00\x00\x00\x00\x00\x00\x00\x00\x00\x00\x00\x00\x00\x00\x00\x00\x00\x00\x00\x00\x00\x00\x00\x00\x00\x00\x00\x00\x00\x00\x00\x00\x00\x00\x00\x00\x00\x00\x00\x00\x00\x00\x00\x00\x00\x00\x00\x00\x00\x00\x00'<class 'str'>
165679125<class 'int'>	53.1552278<class 'float'>	56.470281699999994<class 'float'>	6.127000331878662<class 'float'>	99.68290710449219<class 'float'>	1.06<class 'float'>	-7.51<class 'str'>	241.99<class 'float'>	b'Mission: 4 WP\x00\x00\x00\x00\x00\x00\x00\x00\x00\x00\x00\x00\x00\x00\x00\x00\x00\x00\x00\x00\x00\x00\x00\x00\x00\x00\x00\x00\x00\x00\x00\x00\x00\x00\x00\x00\x00\x00\x00\x00\x00\x00\x00\x00\x00\x00\x00\x00\x00\x00\x00'<class 'str'>
166055532<class 'int'>	53.1551956<class 'float'>	56.4702683<class 'float'>	6.272000312805176<class 'float'>	100.44585418701172<class 'float'>	1.58<class 'float'>	-7.33<class 'str'>	242.17000000000002<class 'float'>	b'Mission: 4 WP\x00\x00\x00\x00\x00\x00\x00\x00\x00\x00\x00\x00\x00\x00\x00\x00\x00\x00\x00\x00\x00\x00\x00\x00\x00\x00\x00\x00\x00\x00\x00\x00\x00\x00\x00\x00\x00\x00\x00\x00\x00\x00\x00\x00\x00\x00\x00\x00\x00\x00\x00'<class 'str'>
166638172<class 'int'>	53.155145999999995<class 'float'>	56.470248<class 'float'>	6.3510003089904785<class 'float'>	100.46846008300781<class 'float'>	1.35<class 'float'>	-7.16<class 'str'>	242.28<class 'float'>	b'Mission: 4 WP\x00\x00\x00\x00\x00\x00\x00\x00\x00\x00\x00\x00\x00\x00\x00\x00\x00\x00\x00\x00\x00\x00\x00\x00\x00\x00\x00\x00\x00\x00\x00\x00\x00\x00\x00\x00\x00\x00\x00\x00\x00\x00\x00\x00\x00\x00\x00\x00\x00\x00\x00'<class 'str'>
167245478<class 'int'>	53.1550952<class 'float'>	56.4702275<class 'float'>	6.487000465393066<class 'float'>	100.53062438964844<class 'float'>	1.45<class 'float'>	-7.61<class 'str'>	242.48000000000002<class 'float'>	b'Mission: 4 WP\x00\x00\x00\x00\x00\x00\x00\x00\x00\x00\x00\x00\x00\x00\x00\x00\x00\x00\x00\x00\x00\x00\x00\x00\x00\x00\x00\x00\x00\x00\x00\x00\x00\x00\x00\x00\x00\x00\x00\x00\x00\x00\x00\x00\x00\x00\x00\x00\x00\x00\x00'<class 'str'>
167849093<class 'int'>	53.155043899999995<class 'float'>	56.4702068<class 'float'>	6.574000358581543<class 'float'>	100.57018280029297<class 'float'>	1.28<class 'float'>	-7.16<class 'str'>	242.61<class 'float'>	b'Mission: 4 WP\x00\x00\x00\x00\x00\x00\x00\x00\x00\x00\x00\x00\x00\x00\x00\x00\x00\x00\x00\x00\x00\x00\x00\x00\x00\x00\x00\x00\x00\x00\x00\x00\x00\x00\x00\x00\x00\x00\x00\x00\x00\x00\x00\x00\x00\x00\x00\x00\x00\x00\x00'<class 'str'>
168440683<class 'int'>	53.1549926<class 'float'>	56.470185799999996<class 'float'>	6.618000507354736<class 'float'>	100.11524200439453<class 'float'>	1.16<class 'float'>	-6.82<class 'str'>	242.74<class 'float'>	b'Mission: 4 WP\x00\x00\x00\x00\x00\x00\x00\x00\x00\x00\x00\x00\x00\x00\x00\x00\x00\x00\x00\x00\x00\x00\x00\x00\x00\x00\x00\x00\x00\x00\x00\x00\x00\x00\x00\x00\x00\x00\x00\x00\x00\x00\x00\x00\x00\x00\x00\x00\x00\x00\x00'<class 'str'>
168836454<class 'int'>	53.154958199999996<class 'float'>	56.4701714<class 'float'>	6.656000137329102<class 'float'>	100.52780151367188<class 'float'>	1.8800000000000001<class 'float'>	-7.12<class 'str'>	243.07<class 'float'>	b'Mission: 4 WP\x00\x00\x00\x00\x00\x00\x00\x00\x00\x00\x00\x00\x00\x00\x00\x00\x00\x00\x00\x00\x00\x00\x00\x00\x00\x00\x00\x00\x00\x00\x00\x00\x00\x00\x00\x00\x00\x00\x00\x00\x00\x00\x00\x00\x00\x00\x00\x00\x00\x00\x00'<class 'str'>
169440754<class 'int'>	53.154905799999995<class 'float'>	56.470149799999994<class 'float'>	6.7360005378723145<class 'float'>	100.56170654296875<class 'float'>	1.27<class 'float'>	-6.82<class 'str'>	243.27<class 'float'>	b'Mission: 4 WP\x00\x00\x00\x00\x00\x00\x00\x00\x00\x00\x00\x00\x00\x00\x00\x00\x00\x00\x00\x00\x00\x00\x00\x00\x00\x00\x00\x00\x00\x00\x00\x00\x00\x00\x00\x00\x00\x00\x00\x00\x00\x00\x00\x00\x00\x00\x00\x00\x00\x00\x00'<class 'str'>
170043558<class 'int'>	53.1548534<class 'float'>	56.470127899999994<class 'float'>	6.749000549316406<class 'float'>	100.58148956298828<class 'float'>	1.86<class 'float'>	-6.54<class 'str'>	243.61<class 'float'>	b'Mission: 4 WP\x00\x00\x00\x00\x00\x00\x00\x00\x00\x00\x00\x00\x00\x00\x00\x00\x00\x00\x00\x00\x00\x00\x00\x00\x00\x00\x00\x00\x00\x00\x00\x00\x00\x00\x00\x00\x00\x00\x00\x00\x00\x00\x00\x00\x00\x00\x00\x00\x00\x00\x00'<class 'str'>
170648838<class 'int'>	53.1548005<class 'float'>	56.4701062<class 'float'>	6.76900053024292<class 'float'>	100.57583618164062<class 'float'>	2.05<class 'float'>	-7.5600000000000005<class 'str'>	243.74<class 'float'>	b'Mission: 4 WP\x00\x00\x00\x00\x00\x00\x00\x00\x00\x00\x00\x00\x00\x00\x00\x00\x00\x00\x00\x00\x00\x00\x00\x00\x00\x00\x00\x00\x00\x00\x00\x00\x00\x00\x00\x00\x00\x00\x00\x00\x00\x00\x00\x00\x00\x00\x00\x00\x00\x00\x00'<class 'str'>
171044591<class 'int'>	53.154765<class 'float'>	56.470091599999996<class 'float'>	6.878000259399414<class 'float'>	100.65778350830078<class 'float'>	1.74<class 'float'>	-8.3<class 'str'>	243.85<class 'float'>	b'Mission: 4 WP\x00\x00\x00\x00\x00\x00\x00\x00\x00\x00\x00\x00\x00\x00\x00\x00\x00\x00\x00\x00\x00\x00\x00\x00\x00\x00\x00\x00\x00\x00\x00\x00\x00\x00\x00\x00\x00\x00\x00\x00\x00\x00\x00\x00\x00\x00\x00\x00\x00\x00\x00'<class 'str'>
171666849<class 'int'>	53.1547109<class 'float'>	56.470069699999996<class 'float'>	6.997000217437744<class 'float'>	100.93187713623047<class 'float'>	1.1<class 'float'>	-7.38<class 'str'>	243.81<class 'float'>	b'Mission: 4 WP\x00\x00\x00\x00\x00\x00\x00\x00\x00\x00\x00\x00\x00\x00\x00\x00\x00\x00\x00\x00\x00\x00\x00\x00\x00\x00\x00\x00\x00\x00\x00\x00\x00\x00\x00\x00\x00\x00\x00\x00\x00\x00\x00\x00\x00\x00\x00\x00\x00\x00\x00'<class 'str'>
172248261<class 'int'>	53.1546567<class 'float'>	56.4700476<class 'float'>	6.947000503540039<class 'float'>	100.63800048828125<class 'float'>	0.88<class 'float'>	-7.49<class 'str'>	243.92000000000002<class 'float'>	b'Mission: 4 WP\x00\x00\x00\x00\x00\x00\x00\x00\x00\x00\x00\x00\x00\x00\x00\x00\x00\x00\x00\x00\x00\x00\x00\x00\x00\x00\x00\x00\x00\x00\x00\x00\x00\x00\x00\x00\x00\x00\x00\x00\x00\x00\x00\x00\x00\x00\x00\x00\x00\x00\x00'<class 'str'>
172640688<class 'int'>	53.1546203<class 'float'>	56.470032599999996<class 'float'>	7.026000499725342<class 'float'>	100.68603515625<class 'float'>	2.0<class 'float'>	-8.44<class 'str'>	244.04<class 'float'>	b'Mission: 4 WP\x00\x00\x00\x00\x00\x00\x00\x00\x00\x00\x00\x00\x00\x00\x00\x00\x00\x00\x00\x00\x00\x00\x00\x00\x00\x00\x00\x00\x00\x00\x00\x00\x00\x00\x00\x00\x00\x00\x00\x00\x00\x00\x00\x00\x00\x00\x00\x00\x00\x00\x00'<class 'str'>
173245027<class 'int'>	53.1545652<class 'float'>	56.470010099999996<class 'float'>	7.124000549316406<class 'float'>	100.2056655883789<class 'float'>	1.8900000000000001<class 'float'>	-9.01<class 'str'>	243.99<class 'float'>	b'Mission: 4 WP\x00\x00\x00\x00\x00\x00\x00\x00\x00\x00\x00\x00\x00\x00\x00\x00\x00\x00\x00\x00\x00\x00\x00\x00\x00\x00\x00\x00\x00\x00\x00\x00\x00\x00\x00\x00\x00\x00\x00\x00\x00\x00\x00\x00\x00\x00\x00\x00\x00\x00\x00'<class 'str'>
173847457<class 'int'>	53.1545097<class 'float'>	56.4699872<class 'float'>	7.157000541687012<class 'float'>	100.65495300292969<class 'float'>	1.83<class 'float'>	-8.33<class 'str'>	244.04<class 'float'>	b'Mission: 4 WP\x00\x00\x00\x00\x00\x00\x00\x00\x00\x00\x00\x00\x00\x00\x00\x00\x00\x00\x00\x00\x00\x00\x00\x00\x00\x00\x00\x00\x00\x00\x00\x00\x00\x00\x00\x00\x00\x00\x00\x00\x00\x00\x00\x00\x00\x00\x00\x00\x00\x00\x00'<class 'str'>
174432120<class 'int'>	53.154453399999994<class 'float'>	56.4699641<class 'float'>	7.273000240325928<class 'float'>	100.54192352294922<class 'float'>	1.8<class 'float'>	-8.370000000000001<class 'str'>	244.0<class 'float'>	b'Mission: 4 WP\x00\x00\x00\x00\x00\x00\x00\x00\x00\x00\x00\x00\x00\x00\x00\x00\x00\x00\x00\x00\x00\x00\x00\x00\x00\x00\x00\x00\x00\x00\x00\x00\x00\x00\x00\x00\x00\x00\x00\x00\x00\x00\x00\x00\x00\x00\x00\x00\x00\x00\x00'<class 'str'>
174849465<class 'int'>	53.154415199999995<class 'float'>	56.4699488<class 'float'>	7.3610005378723145<class 'float'>	100.60691833496094<class 'float'>	1.77<class 'float'>	-8.620000000000001<class 'str'>	244.21<class 'float'>	b'Mission: 4 WP\x00\x00\x00\x00\x00\x00\x00\x00\x00\x00\x00\x00\x00\x00\x00\x00\x00\x00\x00\x00\x00\x00\x00\x00\x00\x00\x00\x00\x00\x00\x00\x00\x00\x00\x00\x00\x00\x00\x00\x00\x00\x00\x00\x00\x00\x00\x00\x00\x00\x00\x00'<class 'str'>
175457949<class 'int'>	53.154357499999996<class 'float'>	56.4699259<class 'float'>	7.39900016784668<class 'float'>	100.14350128173828<class 'float'>	1.74<class 'float'>	-8.28<class 'str'>	244.12<class 'float'>	b'Mission: 4 WP\x00\x00\x00\x00\x00\x00\x00\x00\x00\x00\x00\x00\x00\x00\x00\x00\x00\x00\x00\x00\x00\x00\x00\x00\x00\x00\x00\x00\x00\x00\x00\x00\x00\x00\x00\x00\x00\x00\x00\x00\x00\x00\x00\x00\x00\x00\x00\x00\x00\x00\x00'<class 'str'>
176042423<class 'int'>	53.1542989<class 'float'>	56.469902899999994<class 'float'>	7.469000339508057<class 'float'>	99.93439483642578<class 'float'>	1.44<class 'float'>	-8.35<class 'str'>	244.17000000000002<class 'float'>	b'Mission: 4 WP\x00\x00\x00\x00\x00\x00\x00\x00\x00\x00\x00\x00\x00\x00\x00\x00\x00\x00\x00\x00\x00\x00\x00\x00\x00\x00\x00\x00\x00\x00\x00\x00\x00\x00\x00\x00\x00\x00\x00\x00\x00\x00\x00\x00\x00\x00\x00\x00\x00\x00\x00'<class 'str'>
